{
  "version": 0.6,
  "generator": "Overpass API 0.7.55.5 2ca3f387",
  "osm3s": {
    "timestamp_osm_base": "2019-01-03T23:16:02Z",
    "timestamp_areas_base": "2019-01-03T22:17:02Z",
    "copyright": "The data included in this document is from www.openstreetmap.org. The data is made available under ODbL."
  },
  "elements": [
    {
      "type": "node",
      "id": 86588346,
      "lat": 34.1153033,
      "lon": -118.1828915,
      "tags": {
        "name": "99 Cents Only",
        "shop": "convenience",
        "website": "http://99only.com/"
      }
    },
    {
      "type": "node",
      "id": 276600064,
      "lat": 34.0203234,
      "lon": -118.4220689,
      "tags": {
        "created_by": "Potlatch 0.9c",
        "name": "Trader Joe's",
        "shop": "supermarket"
      }
    },
    {
      "type": "node",
      "id": 349339593,
      "lat": 34.0981853,
      "lon": -118.3268328,
      "tags": {
        "name": "Walgreen",
        "opening_hours": "24/7",
        "shop": "drugstore"
      }
    },
    {
      "type": "node",
      "id": 360051491,
      "lat": 34.2599712,
      "lon": -118.323967,
      "tags": {
        "name": "7-11",
        "shop": "convenience"
      }
    },
    {
      "type": "node",
      "id": 360256237,
      "lat": 34.2600456,
      "lon": -118.3239428,
      "tags": {
        "created_by": "Potlatch 0.10f",
        "name": "???",
        "shop": "dry_cleaning"
      }
    },
    {
      "type": "node",
      "id": 360256857,
      "lat": 34.2602371,
      "lon": -118.3239084,
      "tags": {
        "created_by": "Potlatch 0.10f",
        "name": "?????",
        "shop": "clothes"
      }
    },
    {
      "type": "node",
      "id": 360258239,
      "lat": 34.2600527,
      "lon": -118.3233849,
      "tags": {
        "created_by": "Potlatch 0.10f",
        "name": "Baskin-Robbins",
        "shop": "ice_cream"
      }
    },
    {
      "type": "node",
      "id": 360259344,
      "lat": 34.2599392,
      "lon": -118.3233849,
      "tags": {
        "created_by": "Potlatch 0.10f",
        "name": "Yum Yum",
        "shop": "doughnut"
      }
    },
    {
      "type": "node",
      "id": 375393681,
      "lat": 34.1880845,
      "lon": -118.4652991,
      "tags": {
        "created_by": "Potlatch 0.10f",
        "name": "Ranch 99",
        "name:zh": "99大华超市",
        "shop": "supermarket"
      }
    },
    {
      "type": "node",
      "id": 417181282,
      "lat": 33.992371,
      "lon": -118.4783419,
      "tags": {
        "name": "Harley Davidson Shop",
        "shop": "sports"
      }
    },
    {
      "type": "node",
      "id": 470868191,
      "lat": 34.0487063,
      "lon": -118.2584697,
      "tags": {
        "name": "Famima",
        "shop": "convenience"
      }
    },
    {
      "type": "node",
      "id": 470881984,
      "lat": 34.0520632,
      "lon": -118.2509637,
      "tags": {
        "name": "Famima",
        "shop": "convenience"
      }
    },
    {
      "type": "node",
      "id": 470894217,
      "lat": 34.0455899,
      "lon": -118.2608354,
      "tags": {
        "name": "Ralph's",
        "shop": "supermarket",
        "wheelchair": "yes"
      }
    },
    {
      "type": "node",
      "id": 470912985,
      "lat": 34.0465642,
      "lon": -118.2557542,
      "tags": {
        "name": "7-Eleven",
        "shop": "convenience"
      }
    },
    {
      "type": "node",
      "id": 543990135,
      "lat": 34.0423688,
      "lon": -118.2558001,
      "tags": {
        "name": "Gary Leonard Take My Picture",
        "shop": "photo"
      }
    },
    {
      "type": "node",
      "id": 543990352,
      "lat": 34.0417021,
      "lon": -118.2554451,
      "tags": {
        "name": "Sara Palacios Gallery",
        "shop": "photo"
      }
    },
    {
      "type": "node",
      "id": 566387419,
      "lat": 34.2599921,
      "lon": -118.3154602,
      "tags": {
        "operator": "7 Eleven",
        "shop": "convenience"
      }
    },
    {
      "type": "node",
      "id": 607902536,
      "lat": 34.0429281,
      "lon": -118.2161906,
      "tags": {
        "amenity": "fuel",
        "brand": "Shell",
        "fuel:diesel": "yes",
        "fuel:propane": "yes",
        "shop": "convenience",
        "source": "survey;image;usgs_imagery",
        "source_ref": "AM909_DSCR0332"
      }
    },
    {
      "type": "node",
      "id": 607992177,
      "lat": 34.0511984,
      "lon": -118.2481051,
      "tags": {
        "name": "T-Mobile",
        "shop": "wireless",
        "source": "survey;image;usgs_imagery",
        "source_ref": "AM909_DSCR0364"
      }
    },
    {
      "type": "node",
      "id": 608957448,
      "lat": 34.0692525,
      "lon": -118.2919862,
      "tags": {
        "addr:city": "Los Angeles",
        "addr:housenumber": "3501",
        "addr:postcode": "90004",
        "addr:state": "CA",
        "addr:street": "3rd St",
        "addr:street_direction_prefix": "W",
        "amenity": "fuel",
        "atm": "yes",
        "brand": "76",
        "shop": "convenience",
        "source": "survey;image;usgs_imagery",
        "source_ref": "AM909_DSCR0429"
      }
    },
    {
      "type": "node",
      "id": 609065230,
      "lat": 34.0692294,
      "lon": -118.3033681,
      "tags": {
        "name": "7-Eleven",
        "shop": "convenience",
        "source": "survey;image;usgs_imagery",
        "source_ref": "AM909_DSCR0442"
      }
    },
    {
      "type": "node",
      "id": 610178503,
      "lat": 34.0704341,
      "lon": -118.2675191,
      "tags": {
        "amenity": "fuel",
        "brand": "Shell",
        "car_wash": "yes",
        "fuel:diesel": "yes",
        "shop": "convenience",
        "source": "survey;image;usgs_imagery",
        "source_ref": "AM909_DSCR0532"
      }
    },
    {
      "type": "node",
      "id": 610178507,
      "lat": 34.0780532,
      "lon": -118.262762,
      "tags": {
        "amenity": "fuel",
        "brand": "Shell",
        "fuel:diesel": "yes",
        "shop": "convenience",
        "source": "survey;image;usgs_imagery",
        "source_ref": "AM909_DSCR0546"
      }
    },
    {
      "type": "node",
      "id": 610178521,
      "lat": 34.0825423,
      "lon": -118.2609295,
      "tags": {
        "addr:city": "Los Angeles",
        "addr:housenumber": "1515",
        "addr:postcode": "90026",
        "addr:state": "CA",
        "addr:street": "Alvarado St",
        "addr:street_direction_prefix": "N",
        "name": "Auto Zone",
        "shop": "automotive",
        "source": "survey;image;usgs_imagery",
        "source_ref": "AM909_DSCR0552"
      }
    },
    {
      "type": "node",
      "id": 610186122,
      "lat": 34.0643555,
      "lon": -118.2493837,
      "tags": {
        "amenity": "pharmacy",
        "dispensing": "yes",
        "name": "CVS/pharmacy",
        "shop": "chemist;stationery;convenience",
        "source": "survey;image;usgs_imagery",
        "source_ref": "AM909_DSCR0614"
      }
    },
    {
      "type": "node",
      "id": 614003511,
      "lat": 34.0259251,
      "lon": -118.2295749,
      "tags": {
        "amenity": "fuel",
        "brand": "Shell",
        "fuel:diesel": "yes",
        "shop": "convenience;car_repair",
        "source": "survey;image;usgs_imagery",
        "source_ref": "AM909_DSCR9516"
      }
    },
    {
      "type": "node",
      "id": 614037517,
      "lat": 34.0719018,
      "lon": -118.2213266,
      "tags": {
        "atm": "yes",
        "shop": "convenience",
        "source": "survey;image;usgs_imagery",
        "source_ref": "AM909_DSCR9614"
      }
    },
    {
      "type": "node",
      "id": 614037522,
      "lat": 34.0729235,
      "lon": -118.220036,
      "tags": {
        "amenity": "fuel",
        "atm": "yes",
        "brand": "76",
        "fuel:diesel": "yes",
        "opening_hours": "24/7",
        "shop": "convenience",
        "source": "survey;image;usgs_imagery",
        "source_ref": "AM909_DSCR9618"
      }
    },
    {
      "type": "node",
      "id": 614042908,
      "lat": 34.0735,
      "lon": -118.2153368,
      "tags": {
        "name": "Payless Shoe Source",
        "shop": "shoes",
        "source": "survey;image;usgs_imagery",
        "source_ref": "AM909_DSCR9626"
      }
    },
    {
      "type": "node",
      "id": 614042911,
      "lat": 34.0734981,
      "lon": -118.2150874,
      "tags": {
        "name": "99 Cents Only Stores",
        "shop": "discount"
      }
    },
    {
      "type": "node",
      "id": 614042926,
      "lat": 34.0735162,
      "lon": -118.207495,
      "tags": {
        "amenity": "fuel",
        "atm": "yes",
        "brand": "Shell",
        "fuel:diesel": "yes",
        "shop": "convenience",
        "source": "survey;image;usgs_imagery",
        "source_ref": "AM909_DSCR9639"
      }
    },
    {
      "type": "node",
      "id": 614042931,
      "lat": 34.073596,
      "lon": -118.2041038,
      "tags": {
        "shop": "grocery;butcher",
        "source": "survey;image;usgs_imagery",
        "source_ref": "AM909_DSCR9643"
      }
    },
    {
      "type": "node",
      "id": 614131294,
      "lat": 34.0859145,
      "lon": -118.1879442,
      "tags": {
        "amenity": "fuel",
        "brand": "Shell",
        "shop": "convenience",
        "source": "survey;image;usgs_imagery",
        "source_ref": "AM909_DSCR9666"
      }
    },
    {
      "type": "node",
      "id": 620048249,
      "lat": 34.0388953,
      "lon": -118.5558154,
      "tags": {
        "amenity": "fuel",
        "brand": "Chevron",
        "fuel:diesel": "no",
        "shop": "convenience",
        "source": "usgs_imagery_2006;survey;image",
        "source_ref": "AM909_DSCS6426"
      }
    },
    {
      "type": "node",
      "id": 634032214,
      "lat": 33.7818646,
      "lon": -118.2980305,
      "tags": {
        "name": "7-Eleven",
        "shop": "convenience",
        "source": "survey;image;usgs_imagery",
        "source_ref": "AM909_DSCS3097"
      }
    },
    {
      "type": "node",
      "id": 664153974,
      "lat": 34.1013143,
      "lon": -118.3344322,
      "tags": {
        "email": "info@larryedmunds.com",
        "name": "Larry Edmunds Bookshop",
        "opening_hours": "Mo 10:00-17:30; Tu-Sa 10:00-19:00; Su 12:00-19:00",
        "phone": "+1 323-463-3273",
        "shop": "books",
        "tourism": "attraction",
        "website": "http://larryedmunds.com/"
      }
    },
    {
      "type": "node",
      "id": 664153975,
      "lat": 34.101358,
      "lon": -118.3362662,
      "tags": {
        "name": "Red's Bookshop",
        "shop": "books",
        "tourism": "attraction"
      }
    },
    {
      "type": "node",
      "id": 670108856,
      "lat": 34.0834375,
      "lon": -118.2946531,
      "tags": {
        "addr:housename": "Orange20 Bikes",
        "addr:housenumber": "4314",
        "addr:street": "Melrose Avenue",
        "name": "Orange20 Bikes",
        "phone": "+1 323 6624537",
        "service:bicycle:pump": "yes",
        "service:bicycle:repair": "yes",
        "service:bicycle:retail": "yes",
        "shop": "bicycle",
        "source": "Local knowledge",
        "website": "http://orange20bikes.com/"
      }
    },
    {
      "type": "node",
      "id": 670108857,
      "lat": 34.0958938,
      "lon": -118.2862276,
      "tags": {
        "addr:city": "Los Angeles",
        "addr:housenumber": "4429",
        "addr:postcode": "90029",
        "addr:street": "Fountain Avenue",
        "email": "kitchen@bicyclekitchen.com",
        "name": "The Bicycle Kitchen/La Bicicocina",
        "opening_hours": "Mo 12:00-17:00;Mo 18:30-21:30 open \"Ladies & Transgendered only\";Tu-Th 18:30-21:30;Sa 12:00-16:00;Su 14:00-18:00",
        "phone": "+1 323 662 2776",
        "service:bicycle:diy": "yes",
        "service:bicycle:retail": "no",
        "shop": "bicycle",
        "website": "http://www.bicyclekitchen.com"
      }
    },
    {
      "type": "node",
      "id": 732737150,
      "lat": 34.063677,
      "lon": -118.34735,
      "tags": {
        "addr:housenumber": "619",
        "addr:street": "South Cochran avenue",
        "description": "Residence",
        "name": "Residence",
        "shop": "massage"
      }
    },
    {
      "type": "node",
      "id": 757109851,
      "lat": 34.0949083,
      "lon": -118.3055038,
      "tags": {
        "name": "Sunset Vacuum Shop",
        "shop": "yes",
        "source": "survey"
      }
    },
    {
      "type": "node",
      "id": 757182297,
      "lat": 34.0951193,
      "lon": -118.3007912,
      "tags": {
        "name": "Cecy's Market",
        "shop": "supermarket",
        "source": "survey"
      }
    },
    {
      "type": "node",
      "id": 757239551,
      "lat": 34.0955791,
      "lon": -118.2876591,
      "tags": {
        "name": "La Providencia Market",
        "shop": "convenience"
      }
    },
    {
      "type": "node",
      "id": 757327034,
      "lat": 34.0769216,
      "lon": -118.275498,
      "tags": {
        "name": "El C Lollo Meat Market",
        "shop": "supermarket",
        "source": "survey"
      }
    },
    {
      "type": "node",
      "id": 757759930,
      "lat": 34.0865443,
      "lon": -118.1864998,
      "tags": {
        "name": "Dollar Store",
        "shop": "supermarket",
        "source": "survey"
      }
    },
    {
      "type": "node",
      "id": 806649036,
      "lat": 34.0839006,
      "lon": -118.2137358,
      "tags": {
        "shop": "grocery",
        "source": "usgs_imagery;survey;image",
        "source_ref": "AM909_DSCV1644"
      }
    },
    {
      "type": "node",
      "id": 839067873,
      "lat": 34.15066,
      "lon": -118.4315498,
      "tags": {
        "shop": "alcohol"
      }
    },
    {
      "type": "node",
      "id": 845394127,
      "lat": 34.2605131,
      "lon": -118.3267235,
      "tags": {
        "name": "Ralphs",
        "shop": "supermarket"
      }
    },
    {
      "type": "node",
      "id": 865900060,
      "lat": 34.0276191,
      "lon": -118.5180594,
      "tags": {
        "addr:city": "Los Angeles",
        "addr:housenumber": "14791",
        "addr:postcode": "90402",
        "addr:state": "CA",
        "addr:street": "Pacific Coast Highway",
        "amenity": "fuel",
        "brand": "Chevron",
        "fuel:diesel": "yes",
        "shop": "convenience",
        "source": "usgs_imagery_2006;survey;image;LACA",
        "source_ref": "AM909_DSCS6382;AM909_DSCS6403"
      }
    },
    {
      "type": "node",
      "id": 865900157,
      "lat": 34.0280273,
      "lon": -118.5188559,
      "tags": {
        "name": "State Beach Liquor & Deli",
        "shop": "alcohol",
        "source": "usgs_imagery_2006;survey;image",
        "source_ref": "AM909_DSCS6405"
      }
    },
    {
      "type": "node",
      "id": 902322498,
      "lat": 34.0995503,
      "lon": -118.2926877,
      "tags": {
        "name": "Fallas Paredes",
        "operator": "Fallas Paredes",
        "shop": "clothes",
        "wheelchair": "limited"
      }
    },
    {
      "type": "node",
      "id": 902322504,
      "lat": 34.1048793,
      "lon": -118.292212,
      "tags": {
        "name": "Farmer's Mkt Sunday",
        "shop": "outdoor"
      }
    },
    {
      "type": "node",
      "id": 902322509,
      "lat": 34.1039029,
      "lon": -118.2870724,
      "tags": {
        "shop": "laundry"
      }
    },
    {
      "type": "node",
      "id": 902322532,
      "lat": 34.1088413,
      "lon": -118.2879198,
      "tags": {
        "name": "Albertson's",
        "shop": "supermarket"
      }
    },
    {
      "type": "node",
      "id": 902322542,
      "lat": 34.105215,
      "lon": -118.2913752,
      "tags": {
        "name": "7-Eleven",
        "shop": "convenience"
      }
    },
    {
      "type": "node",
      "id": 902322555,
      "lat": 34.1001798,
      "lon": -118.2926464,
      "tags": {
        "name": "Jon's Marketplace",
        "shop": "supermarket"
      }
    },
    {
      "type": "node",
      "id": 911489250,
      "lat": 34.104207,
      "lon": -118.2916186,
      "tags": {
        "addr:city": "Los Angeles",
        "addr:housenumber": "1818",
        "addr:postcode": "90027",
        "addr:street": "North Vermont Avenue",
        "name": "Skylight Books",
        "opening_hours": "10:00-22:00",
        "phone": "(323) 660-1175",
        "shop": "books"
      }
    },
    {
      "type": "node",
      "id": 933320750,
      "lat": 34.0690241,
      "lon": -118.2501097,
      "tags": {
        "name": "Reliable Do It Center",
        "shop": "doityourself",
        "source": "survey"
      }
    },
    {
      "type": "node",
      "id": 933344236,
      "lat": 34.0750673,
      "lon": -118.2527114,
      "tags": {
        "name": "Casablanca Furniture",
        "shop": "furniture",
        "source": "survey"
      }
    },
    {
      "type": "node",
      "id": 933350506,
      "lat": 34.0776666,
      "lon": -118.2576762,
      "tags": {
        "name": "Walgreens",
        "shop": "convenience"
      }
    },
    {
      "type": "node",
      "id": 933992962,
      "lat": 34.2303228,
      "lon": -118.3846885,
      "tags": {
        "addr:city": "Los Angeles",
        "addr:full": "8909 San Fernando Road Sun Valley, CA. 91352",
        "addr:housenumber": "8909",
        "addr:postcode": "91352",
        "addr:street": "San Fernando",
        "name": "Apex Electronics",
        "shop": "electronics",
        "source": "survey; local_knowledge; GPS"
      }
    },
    {
      "type": "node",
      "id": 938551260,
      "lat": 34.0910273,
      "lon": -118.3313896,
      "tags": {
        "addr:city": "Hollywood",
        "addr:housenumber": "6511",
        "addr:postcode": "90038",
        "addr:street": "Santa Monica Boulevard",
        "name": "Honda of Hollywood",
        "phone": "323-466-3251",
        "shop": "car",
        "website": "http://www.hondaofhollywood.com/"
      }
    },
    {
      "type": "node",
      "id": 938551261,
      "lat": 34.0912783,
      "lon": -118.3344179,
      "tags": {
        "name": "Stock Building Supply",
        "shop": "hardware",
        "source": "survey"
      }
    },
    {
      "type": "node",
      "id": 938551265,
      "lat": 34.0910473,
      "lon": -118.336518,
      "tags": {
        "name": "7-Eleven",
        "shop": "convenience",
        "source": "survey"
      }
    },
    {
      "type": "node",
      "id": 938554865,
      "lat": 34.0910473,
      "lon": -118.3367594,
      "tags": {
        "name": "Launderland Coin Laundry",
        "shop": "laundry",
        "source": "survey"
      }
    },
    {
      "type": "node",
      "id": 939240764,
      "lat": 34.0850367,
      "lon": -118.3443846,
      "tags": {
        "addr:housenumber": "755",
        "name": "Italy 2000",
        "shop": "furniture",
        "source": "survey"
      }
    },
    {
      "type": "node",
      "id": 939240768,
      "lat": 34.0869716,
      "lon": -118.3443243,
      "tags": {
        "name": "Le Brea Auto Bode Shop",
        "shop": "car_repair"
      }
    },
    {
      "type": "node",
      "id": 939249691,
      "lat": 34.0828619,
      "lon": -118.3443042,
      "tags": {
        "name": "The Futon Shop",
        "shop": "furniture",
        "source": "survey"
      }
    },
    {
      "type": "node",
      "id": 939272509,
      "lat": 34.064515,
      "lon": -118.3442612,
      "tags": {
        "name": "Diamond",
        "shop": "fabric",
        "source": "survey"
      }
    },
    {
      "type": "node",
      "id": 939272530,
      "lat": 34.0652993,
      "lon": -118.3442747,
      "tags": {
        "name": "Loft Antique Hardware",
        "shop": "hardware",
        "source": "survey"
      }
    },
    {
      "type": "node",
      "id": 939272544,
      "lat": 34.0691676,
      "lon": -118.3443578,
      "tags": {
        "name": "Trader Joe's",
        "shop": "supermarket",
        "source": "survey"
      }
    },
    {
      "type": "node",
      "id": 939272601,
      "lat": 34.0788876,
      "lon": -118.3443256,
      "tags": {
        "name": "Passport International Furniture",
        "shop": "furniture",
        "source": "survey"
      }
    },
    {
      "type": "node",
      "id": 940358502,
      "lat": 34.050655,
      "lon": -118.3446585,
      "tags": {
        "name": "VIP Expert Auto Repair",
        "shop": "car_repair",
        "source": "survey"
      }
    },
    {
      "type": "node",
      "id": 940358505,
      "lat": 34.0544085,
      "lon": -118.3438404,
      "tags": {
        "name": "Futon City",
        "shop": "furniture",
        "source": "survey"
      }
    },
    {
      "type": "node",
      "id": 940358507,
      "lat": 34.0540351,
      "lon": -118.3438109,
      "tags": {
        "addr:housenumber": "1163",
        "addr:street": "South La Brea Avenue",
        "name": "KT Automotive",
        "shop": "car_repair",
        "source": "survey"
      }
    },
    {
      "type": "node",
      "id": 940358510,
      "lat": 34.0586006,
      "lon": -118.3456724,
      "tags": {
        "name": "A&G Food Mart",
        "shop": "convenience"
      }
    },
    {
      "type": "node",
      "id": 940358513,
      "lat": 34.0565929,
      "lon": -118.3461042,
      "tags": {
        "name": "Harry's Auto Collision Center",
        "opening_hours": "Mo-Fr 08:00-18:00, Sa 10:00-14:00",
        "shop": "car_repair",
        "source": "survey",
        "website": "http://www.harryscollision.com"
      }
    },
    {
      "type": "node",
      "id": 940358514,
      "lat": 34.0563218,
      "lon": -118.3456134,
      "tags": {
        "addr:housenumber": "1015",
        "addr:street": "South La Brea Avenue",
        "name": "Mezian Motors",
        "shop": "car_repair",
        "website": "http://la-saab.com"
      }
    },
    {
      "type": "node",
      "id": 940358526,
      "lat": 34.059895,
      "lon": -118.3451655,
      "tags": {
        "addr:housenumber": "817",
        "name": "Goodwill",
        "shop": "supermarket",
        "source": "survey"
      }
    },
    {
      "type": "node",
      "id": 940376473,
      "lat": 34.0467303,
      "lon": -118.34538,
      "tags": {
        "name": "Lucio Sheet Metal",
        "shop": "yes"
      }
    },
    {
      "type": "node",
      "id": 954714375,
      "lat": 34.1429249,
      "lon": -118.3943675,
      "tags": {
        "addr:city": "Studio City",
        "addr:country": "US",
        "addr:housenumber": "12050",
        "addr:postcode": "91604",
        "addr:street": "Ventura Boulevard",
        "name": "Universal Appliance and Kitchen Center",
        "shop": "bathroom furnishing"
      }
    },
    {
      "type": "node",
      "id": 957098897,
      "lat": 34.143893,
      "lon": -118.3956711,
      "tags": {
        "amenity": "post_office",
        "name": "FedEx Office Print and Ship Center",
        "operator": "FedEx",
        "shop": "copyshop",
        "wheelchair": "no"
      }
    },
    {
      "type": "node",
      "id": 1036344090,
      "lat": 34.0977284,
      "lon": -118.3050098,
      "tags": {
        "name": "99 Cents Only Stores",
        "shop": "variety_store"
      }
    },
    {
      "type": "node",
      "id": 1036344163,
      "lat": 34.0979305,
      "lon": -118.3058493,
      "tags": {
        "name": "Universal Hair Salon",
        "shop": "hairdresser"
      }
    },
    {
      "type": "node",
      "id": 1036344189,
      "lat": 34.0984634,
      "lon": -118.3075803,
      "tags": {
        "name": "Van Bakery",
        "shop": "bakery"
      }
    },
    {
      "type": "node",
      "id": 1036344198,
      "lat": 34.0983814,
      "lon": -118.3064059,
      "tags": {
        "name": "EZ Lube",
        "shop": "car_repair"
      }
    },
    {
      "type": "node",
      "id": 1036344316,
      "lat": 34.0983592,
      "lon": -118.3107953,
      "tags": {
        "name": "GameStop",
        "shop": "video_games"
      }
    },
    {
      "type": "node",
      "id": 1036344326,
      "lat": 34.0986146,
      "lon": -118.311887,
      "tags": {
        "name": "Lucy`s",
        "shop": "supermarket"
      }
    },
    {
      "type": "node",
      "id": 1036344355,
      "lat": 34.0985724,
      "lon": -118.3061042,
      "tags": {
        "name": "Cigarettes4Less",
        "shop": "convenience"
      }
    },
    {
      "type": "node",
      "id": 1036344388,
      "lat": 34.0984602,
      "lon": -118.3128378,
      "tags": {
        "name": "JEM Motor Corp",
        "shop": "car"
      }
    },
    {
      "type": "node",
      "id": 1040459723,
      "lat": 34.0904842,
      "lon": -118.3181862,
      "tags": {
        "name": "Autozone",
        "shop": "car",
        "source": "survey"
      }
    },
    {
      "type": "node",
      "id": 1041257840,
      "lat": 34.1178587,
      "lon": -118.2602596,
      "tags": {
        "addr:city": "Los Angeles",
        "addr:country": "US",
        "addr:full": "3534 Larga Avenue, Los Angeles< California 90039",
        "addr:housenumber": "3534",
        "addr:postcode": "90039",
        "addr:street": "Larga Avenue",
        "name": "Jill's Paint",
        "shop": "paint",
        "url": "www.jillspaint.net"
      }
    },
    {
      "type": "node",
      "id": 1041279967,
      "lat": 34.1139738,
      "lon": -118.2537794,
      "tags": {
        "name": "Vince's Market",
        "shop": "supermarket",
        "source": "survey"
      }
    },
    {
      "type": "node",
      "id": 1090501750,
      "lat": 34.2022394,
      "lon": -118.4505628,
      "tags": {
        "name": "Albertson's",
        "shop": "supermarket"
      }
    },
    {
      "type": "node",
      "id": 1098454659,
      "lat": 34.0879126,
      "lon": -118.3096461,
      "tags": {
        "name": "Smart & Final",
        "shop": "supermarket"
      }
    },
    {
      "type": "node",
      "id": 1145238379,
      "lat": 34.1356634,
      "lon": -118.2164529,
      "tags": {
        "name": "Sprouts Farmers Market",
        "shop": "supermarket"
      }
    },
    {
      "type": "node",
      "id": 1178385439,
      "lat": 34.2463455,
      "lon": -118.2765794,
      "tags": {
        "name": "7-Eleven",
        "shop": "convenience"
      }
    },
    {
      "type": "node",
      "id": 1178385450,
      "lat": 34.2461924,
      "lon": -118.2747658,
      "tags": {
        "name": "Smart & Final",
        "shop": "yes"
      }
    },
    {
      "type": "node",
      "id": 1233313359,
      "lat": 34.0724939,
      "lon": -118.4508264,
      "tags": {
        "name": "UCLA Hilltop Store",
        "shop": "convenience"
      }
    },
    {
      "type": "node",
      "id": 1270766757,
      "lat": 34.093717,
      "lon": -118.3259512,
      "tags": {
        "name": "Office Depot",
        "shop": "computer",
        "source": "local_knowledge"
      }
    },
    {
      "type": "node",
      "id": 1274361043,
      "lat": 34.1044397,
      "lon": -118.3296603,
      "tags": {
        "name": "7-11",
        "shop": "convenience"
      }
    },
    {
      "type": "node",
      "id": 1293326615,
      "lat": 34.1400528,
      "lon": -118.3679456,
      "tags": {
        "ele": "178",
        "name": "Ralph's",
        "shop": "supermarket",
        "source": "survey"
      }
    },
    {
      "type": "node",
      "id": 1302905673,
      "lat": 34.2497517,
      "lon": -118.6066071,
      "tags": {
        "name": "Circle K",
        "shop": "convenience"
      }
    },
    {
      "type": "node",
      "id": 1419803118,
      "lat": 34.02881,
      "lon": -118.403332,
      "tags": {
        "name": "Bob's",
        "shop": "convenience"
      }
    },
    {
      "type": "node",
      "id": 1419803142,
      "lat": 34.0308905,
      "lon": -118.4009435,
      "tags": {
        "name": "18 Minute Wash",
        "shop": "laundry"
      }
    },
    {
      "type": "node",
      "id": 1424275320,
      "lat": 33.9597739,
      "lon": -118.2815554,
      "tags": {
        "addr:housenumber": "432",
        "addr:street": "Manchester Boulevard",
        "name": "Western Truck Exchange",
        "shop": "car",
        "source": "survey"
      }
    },
    {
      "type": "node",
      "id": 1424377560,
      "lat": 33.9598407,
      "lon": -118.2684904,
      "tags": {
        "name": "Numero Uno Market",
        "shop": "supermarket"
      }
    },
    {
      "type": "node",
      "id": 1424377616,
      "lat": 33.9585036,
      "lon": -118.2656794,
      "tags": {
        "name": "Pampa Furniture",
        "shop": "furniture"
      }
    },
    {
      "type": "node",
      "id": 1424377905,
      "lat": 33.9598496,
      "lon": -118.2778942,
      "tags": {
        "fixme": "Which building/buildings is this? We can do better than tagging this as a point",
        "name": "Happy Cleaners",
        "shop": "dry_cleaning"
      }
    },
    {
      "type": "node",
      "id": 1427460458,
      "lat": 34.0476909,
      "lon": -118.4613717,
      "tags": {
        "addr:housenumber": "11750",
        "addr:postcode": "90025",
        "addr:street": "Wilshire Boulevard",
        "amenity": "parking",
        "name": "Parking garage",
        "shop": "supermarket",
        "website": "http://local.pavilions.com/ca/los-angeles-2213.html"
      }
    },
    {
      "type": "node",
      "id": 1435041908,
      "lat": 34.0502826,
      "lon": -118.2405204,
      "tags": {
        "addr:housenumber": "309",
        "addr:postcode": "90012",
        "addr:street": "E. 1st St.",
        "name": "Anzen Hardware",
        "shop": "doityourself"
      }
    },
    {
      "type": "node",
      "id": 1435041909,
      "lat": 34.0500826,
      "lon": -118.2402401,
      "tags": {
        "addr:housenumber": "321",
        "addr:postcode": "90012",
        "addr:street": "E. 1st St.",
        "name": "Video Paradise",
        "shop": "video"
      }
    },
    {
      "type": "node",
      "id": 1438109170,
      "lat": 34.0437943,
      "lon": -118.2360228,
      "tags": {
        "name": "Pearce's Garage",
        "shop": "car_repair"
      }
    },
    {
      "type": "node",
      "id": 1439691661,
      "lat": 34.0395995,
      "lon": -118.2326029,
      "tags": {
        "name": "IS Fish Market",
        "shop": "seafood"
      }
    },
    {
      "type": "node",
      "id": 1441936580,
      "lat": 34.0412452,
      "lon": -118.2378348,
      "tags": {
        "amenity": "fuel",
        "fuel:diesel": "yes",
        "fuel:octane_91": "yes",
        "fuel:octane_93": "yes",
        "fuel:octane_95": "yes",
        "name": "Valero",
        "shop": "convenience"
      }
    },
    {
      "type": "node",
      "id": 1470146215,
      "lat": 34.1864787,
      "lon": -118.6011235,
      "tags": {
        "addr:housenumber": "6400 B",
        "addr:street": "Owensmouth Avenue",
        "clothes": "men",
        "name": "Men's Wearhouse",
        "shop": "clothes"
      }
    },
    {
      "type": "node",
      "id": 1474038151,
      "lat": 34.1678459,
      "lon": -118.6200933,
      "tags": {
        "name": "Smart and Final",
        "shop": "supermarket"
      }
    },
    {
      "type": "node",
      "id": 1488571342,
      "lat": 34.073591,
      "lon": -118.172594,
      "tags": {
        "name": "LC's Beauty Salon",
        "shop": "beauty"
      }
    },
    {
      "type": "node",
      "id": 1507839855,
      "lat": 34.1888505,
      "lon": -118.6007764,
      "tags": {
        "addr:city": "Canoga Park",
        "addr:housenumber": "21601",
        "addr:postcode": "91303",
        "addr:state": "CA",
        "addr:street": "West Victory Boulevard",
        "name": "Best Buy",
        "shop": "electronics",
        "url": "http://stores.bestbuy.com/116/"
      }
    },
    {
      "type": "node",
      "id": 1507839862,
      "lat": 34.1888505,
      "lon": -118.600124,
      "tags": {
        "addr:city": "Canoga Park",
        "addr:housenumber": "21603",
        "addr:postcode": "91303",
        "addr:state": "CA",
        "addr:street": "West Victory Boulevard",
        "name": "Magnolia Audio Video",
        "shop": "electronics",
        "url": "http://www.magnoliaav.com/FindaShowroom/tabid/259/storeId/21/Default.aspx"
      }
    },
    {
      "type": "node",
      "id": 1512036174,
      "lat": 34.1867816,
      "lon": -118.5996809,
      "tags": {
        "name": "Golfsmiths",
        "shop": "sports"
      }
    },
    {
      "type": "node",
      "id": 1512036176,
      "lat": 34.1868275,
      "lon": -118.5993605,
      "tags": {
        "name": "Nordstrom Rack",
        "shop": "clothes"
      }
    },
    {
      "type": "node",
      "id": 1512036177,
      "lat": 34.1880029,
      "lon": -118.5981467,
      "tags": {
        "addr:housenumber": "21436",
        "addr:state": "CA",
        "addr:street": "Victory Boulevard",
        "name": "The Vitamin Shoppe",
        "shop": "supplements"
      }
    },
    {
      "type": "node",
      "id": 1513006666,
      "lat": 34.18764,
      "lon": -118.6256741,
      "tags": {
        "addr:city": "West Hills",
        "addr:housenumber": "22835",
        "addr:state": "CA",
        "addr:street": "Victory Boulevard",
        "name": "Burlington Coat Factory",
        "shop": "clothes"
      }
    },
    {
      "type": "node",
      "id": 1513006669,
      "lat": 34.1881762,
      "lon": -118.6252803,
      "tags": {
        "addr:city": "West Hills",
        "addr:country": "US",
        "addr:full": "6433 Fallbrook Ave",
        "addr:housenumber": "6433",
        "addr:postcode": "91307",
        "addr:state": "CA",
        "addr:street": "Fallbrook Avenue",
        "name": "Walmart",
        "opening_hours": "Mo-Su 07:00-23:00",
        "operator": "Walmart",
        "phone": "+1-818-719-8602",
        "ref:walmart": "5152",
        "shop": "supermarket",
        "website": "https://www.walmart.com/store/5152/west-hills-ca/whats-new"
      }
    },
    {
      "type": "node",
      "id": 1532946635,
      "lat": 34.1856179,
      "lon": -118.626515,
      "tags": {
        "name": "HomeGoods",
        "shop": "yes"
      }
    },
    {
      "type": "node",
      "id": 1532946637,
      "lat": 34.1856281,
      "lon": -118.6269984,
      "tags": {
        "addr:city": "Woodland Hills",
        "addr:country": "US",
        "addr:housenumber": "22950",
        "addr:postcode": "91367",
        "addr:state": "CA",
        "addr:street": "Victory Boulevard",
        "name": "Jo-Ann Fabric and Craft",
        "note": "Store #1157",
        "shop": "fabric"
      }
    },
    {
      "type": "node",
      "id": 1532946643,
      "lat": 34.1912596,
      "lon": -118.6249306,
      "tags": {
        "name": "Kohl's",
        "shop": "clothes"
      }
    },
    {
      "type": "node",
      "id": 1537567602,
      "lat": 34.1877527,
      "lon": -118.5979818,
      "tags": {
        "alt_name": "Chipotle Mexican Grill",
        "amenity": "fast_food",
        "contact:website": "https://chipotle.com/",
        "cuisine": "mexican",
        "name": "Chipotle",
        "shop": "mobile_phone"
      }
    },
    {
      "type": "node",
      "id": 1537567606,
      "lat": 34.1868683,
      "lon": -118.5990894,
      "tags": {
        "addr:housenumber": "21480",
        "name": "Aaron Brothers",
        "shop": "frame"
      }
    },
    {
      "type": "node",
      "id": 1537567614,
      "lat": 34.1803943,
      "lon": -118.6063194,
      "tags": {
        "name": "Casual Male XL",
        "shop": "clothes"
      }
    },
    {
      "type": "node",
      "id": 1537567616,
      "lat": 34.187747,
      "lon": -118.5994935,
      "tags": {
        "addr:housenumber": "21512",
        "addr:street": "Victory Boulevard",
        "name": "Earthly Body",
        "shop": "beauty"
      }
    },
    {
      "type": "node",
      "id": 1537567619,
      "lat": 34.1876792,
      "lon": -118.597965,
      "tags": {
        "amenity": "restaurant",
        "name": "Jamba Juice",
        "shop": "beverages"
      }
    },
    {
      "type": "node",
      "id": 1537567629,
      "lat": 34.1865655,
      "lon": -118.6009678,
      "tags": {
        "addr:housenumber": "6400 D",
        "addr:street": "Owensmouth Avenue",
        "name": "Performance Bike",
        "shop": "bicycle"
      }
    },
    {
      "type": "node",
      "id": 1537567632,
      "lat": 34.1866191,
      "lon": -118.6007522,
      "tags": {
        "addr:housenumber": "6400 C",
        "addr:street": "Owensmouth Avenue",
        "name": "Sprint",
        "shop": "mobile_phone"
      }
    },
    {
      "type": "node",
      "id": 1537567642,
      "lat": 34.1878084,
      "lon": -118.5991334,
      "tags": {
        "addr:housenumber": "21502",
        "addr:street": "Victory Boulevard",
        "name": "Supercuts",
        "shop": "hairdresser"
      }
    },
    {
      "type": "node",
      "id": 1537567645,
      "lat": 34.1877675,
      "lon": -118.5993617,
      "tags": {
        "addr:housenumber": "21508",
        "addr:street": "Victory Boulevard",
        "name": "Top Ten Nails & Spa",
        "shop": "beauty"
      }
    },
    {
      "type": "node",
      "id": 1537567646,
      "lat": 34.1862861,
      "lon": -118.6001277,
      "tags": {
        "addr:housenumber": "21524",
        "addr:street": "Victory Boulevard",
        "name": "Tuesday Morning",
        "shop": "second_hand"
      }
    },
    {
      "type": "node",
      "id": 1572258160,
      "lat": 34.1724065,
      "lon": -118.6064737,
      "tags": {
        "shop": "convenience"
      }
    },
    {
      "type": "node",
      "id": 1579014849,
      "lat": 34.2076593,
      "lon": -118.5079919,
      "tags": {
        "name": "Salon Mila",
        "shop": "hairdresser"
      }
    },
    {
      "type": "node",
      "id": 1596999312,
      "lat": 34.1480562,
      "lon": -118.4305459,
      "tags": {
        "addr:city": "Sherman Oaks",
        "addr:housename": "Vespa - Sherman Oaks",
        "addr:housenumber": "13629",
        "addr:postcode": "91423",
        "addr:state": "CA",
        "addr:street": "Ventura Boulevard",
        "bicycle:sales": "yes",
        "bicycle:type": "pedelec",
        "motorcycle:sales": "yes",
        "motorcycle:type": "scooter",
        "name": "Vespa Sherman Oaks",
        "opening_hours": "Tu-Sa 10:00-18:00; Su 11:00-17:00; Mo,PH off",
        "phone": "+1 818 9060350",
        "shop": "motorcycle",
        "website": "http://www.vespaso.com"
      }
    },
    {
      "type": "node",
      "id": 1613724912,
      "lat": 34.143287,
      "lon": -118.3957091,
      "tags": {
        "name": "Urban Outfitters",
        "shop": "clothes",
        "wheelchair": "yes"
      }
    },
    {
      "type": "node",
      "id": 1629231483,
      "lat": 34.0045514,
      "lon": -118.4324339,
      "tags": {
        "name": "Time Warp Music",
        "shop": "music"
      }
    },
    {
      "type": "node",
      "id": 1629231484,
      "lat": 34.005085,
      "lon": -118.433437,
      "tags": {
        "addr:city": "Los Angeles",
        "addr:housenumber": "3760",
        "addr:postcode": "90066",
        "addr:street": "S Centinela Ave",
        "name": "Mitsuwa Market",
        "shop": "supermarket"
      }
    },
    {
      "type": "node",
      "id": 1629231486,
      "lat": 34.0042979,
      "lon": -118.4318703,
      "tags": {
        "name": "LA Brakeless",
        "shop": "bicycle"
      }
    },
    {
      "type": "node",
      "id": 1629231487,
      "lat": 34.0046047,
      "lon": -118.4323319,
      "tags": {
        "addr:city": "Mar Vista",
        "addr:housenumber": "12255",
        "addr:postcode": "90066",
        "addr:street": "Venice Boulevard",
        "name": "Bikerowave Co-op",
        "opening_hours": "Mo-Th 18:30-22:00;Fr off;Sa 11:00-17:00;Su 11:00-14:00",
        "phone": "+1 310 230 5236",
        "service": "bicycle:diy",
        "service:bicycle:diy": "yes",
        "service:bicycle:retail": "no",
        "shop": "bicycle",
        "website": "http://bikerowave.org/"
      }
    },
    {
      "type": "node",
      "id": 1654012034,
      "lat": 34.0622876,
      "lon": -118.4439126,
      "tags": {
        "addr:housenumber": "1000",
        "addr:postcode": "90024",
        "addr:street": "Glendon Avenue",
        "name": "Trader Joe's",
        "opening_hours": "Mo-Su 08:00-22:00",
        "shop": "convenience"
      }
    },
    {
      "type": "node",
      "id": 1669417084,
      "lat": 34.1105162,
      "lon": -118.2876605,
      "tags": {
        "name": "McCall's",
        "shop": "butcher"
      }
    },
    {
      "type": "node",
      "id": 1671307075,
      "lat": 34.193317,
      "lon": -118.6261161,
      "tags": {
        "name": "Supercuts",
        "shop": "hairdresser"
      }
    },
    {
      "type": "node",
      "id": 1707761086,
      "lat": 34.2352278,
      "lon": -118.52708,
      "tags": {
        "amenity": "fuel",
        "brand": "76",
        "shop": "convenience"
      }
    },
    {
      "type": "node",
      "id": 1711811935,
      "lat": 34.0299222,
      "lon": -118.4214045,
      "tags": {
        "name": "Trader Joe's",
        "shop": "supermarket"
      }
    },
    {
      "type": "node",
      "id": 1717158135,
      "lat": 34.0227377,
      "lon": -118.409595,
      "tags": {
        "name": "Overland Auto Repair",
        "shop": "car_repair"
      }
    },
    {
      "type": "node",
      "id": 1717158140,
      "lat": 34.0225643,
      "lon": -118.410228,
      "tags": {
        "shop": "alcohol"
      }
    },
    {
      "type": "node",
      "id": 1724215725,
      "lat": 33.9862626,
      "lon": -118.4413424,
      "tags": {
        "name": "DSW Shoes",
        "shop": "clothes"
      }
    },
    {
      "type": "node",
      "id": 1749310341,
      "lat": 33.9866331,
      "lon": -118.4563167,
      "tags": {
        "addr:postcode": "90291",
        "addr:street": "Olive ave",
        "designation": "adult novelties, Lelo, Evolved novelties, Cal-Exotics",
        "name": "Intimate Lifestyles",
        "shop": "gift",
        "source": "Google maps, yellow pages",
        "website": "http://www.intimatelifestyles.com"
      }
    },
    {
      "type": "node",
      "id": 1749311652,
      "lat": 33.986513,
      "lon": -118.4562362,
      "tags": {
        "addr:housename": "Alan Goldberg Contractors",
        "addr:postcode": "90291",
        "addr:street": "Olive Ave",
        "designation": "Home Repairs, Contractor",
        "name": "Alan Goldberg Contractors",
        "shop": "doityourself",
        "source": "googel maps, yahoo, yelp",
        "website": "http://alangoldbergcontractors.com"
      }
    },
    {
      "type": "node",
      "id": 1749312043,
      "lat": 33.9864998,
      "lon": -118.4562791,
      "tags": {
        "addr:housename": "Alan Goldberg Electric",
        "addr:postcode": "90291",
        "addr:street": "Olive ave",
        "designation": "Electrician, Electircal company. lighting",
        "name": "Alan Goldberg Electric",
        "shop": "doityourself",
        "website": "http://www.alangoldbergelectric.com"
      }
    },
    {
      "type": "node",
      "id": 1770936653,
      "lat": 34.0254243,
      "lon": -118.372422,
      "tags": {
        "name": "See's Candy Factory Shop",
        "shop": "bakery"
      }
    },
    {
      "type": "node",
      "id": 1771012377,
      "lat": 34.0306365,
      "lon": -118.4009795,
      "tags": {
        "addr:housenumber": "9850",
        "addr:postcode": "90034",
        "addr:street": "National Bl.",
        "name": "Angelo's Shoe Repair",
        "shop": "clothes"
      }
    },
    {
      "type": "node",
      "id": 1771029513,
      "lat": 34.0303058,
      "lon": -118.4012946,
      "tags": {
        "shop": "bakery"
      }
    },
    {
      "type": "node",
      "id": 1771029515,
      "lat": 34.0306809,
      "lon": -118.4009734,
      "tags": {
        "shop": "hairdresser"
      }
    },
    {
      "type": "node",
      "id": 1771029516,
      "lat": 34.0303347,
      "lon": -118.4015696,
      "tags": {
        "shop": "florist"
      }
    },
    {
      "type": "node",
      "id": 1771029518,
      "lat": 34.0309355,
      "lon": -118.4009252,
      "tags": {
        "shop": "clothes"
      }
    },
    {
      "type": "node",
      "id": 1771061777,
      "lat": 34.0277717,
      "lon": -118.3937616,
      "tags": {
        "disused:shop": "supermarket",
        "shop": "supermarket"
      }
    },
    {
      "type": "node",
      "id": 1783734628,
      "lat": 34.1185552,
      "lon": -118.1962494,
      "tags": {
        "name": "El Super",
        "shop": "discount"
      }
    },
    {
      "type": "node",
      "id": 1785835465,
      "lat": 34.1140947,
      "lon": -118.2454141,
      "tags": {
        "name": "Kragen",
        "shop": "car_parts"
      }
    },
    {
      "type": "node",
      "id": 1791111330,
      "lat": 34.1278136,
      "lon": -118.2652881,
      "tags": {
        "name": "Best Buy",
        "shop": "hifi"
      }
    },
    {
      "type": "node",
      "id": 1796489473,
      "lat": 34.0634924,
      "lon": -118.4439088,
      "tags": {
        "addr:housenumber": "10861",
        "addr:postcode": "90024",
        "addr:street": "Weyburn Avenue",
        "name": "Ralphs",
        "opening_hours": "24/7",
        "phone": "+1-310-824-5994",
        "shop": "supermarket"
      }
    },
    {
      "type": "node",
      "id": 1796489475,
      "lat": 34.0627169,
      "lon": -118.4437247,
      "tags": {
        "addr:housenumber": "10861",
        "addr:postcode": "90024",
        "addr:street": "Weyburn Avenue",
        "construction": "yes",
        "name": "Target",
        "opening_hours": "Mo-Fr 07:00-00:00; Sa 08:00-00:00; Su 08:00-23:00",
        "shop": "supermarket"
      }
    },
    {
      "type": "node",
      "id": 1844272021,
      "lat": 33.7800847,
      "lon": -118.3092748,
      "tags": {
        "addr:housename": "Palos Cleaners",
        "addr:housenumber": "26640",
        "addr:postcode": "90710",
        "addr:street": "Western Avenue # D",
        "name": "Palos Cleaners",
        "shop": "clothes"
      }
    },
    {
      "type": "node",
      "id": 1860234745,
      "lat": 34.0990182,
      "lon": -118.3448777,
      "tags": {
        "self_service": "yes",
        "shop": "laundry"
      }
    },
    {
      "type": "node",
      "id": 1899473045,
      "lat": 34.2415986,
      "lon": -118.4261087,
      "tags": {
        "name": "7-Eleven",
        "shop": "convenience",
        "source": "mapdust"
      }
    },
    {
      "type": "node",
      "id": 1902175919,
      "lat": 34.1000166,
      "lon": -118.3264662,
      "tags": {
        "addr:city": "Los Angeles",
        "addr:country": "US",
        "addr:housenumber": "1600",
        "addr:postcode": "90028",
        "addr:state": "CA",
        "addr:street": "Vine Street",
        "contact:website": "http://www.traderjoes.com/",
        "opening_hours": "Mo-Su 08:00-22:00",
        "operator": "Trader Joe's",
        "shop": "supermarket"
      }
    },
    {
      "type": "node",
      "id": 1910250130,
      "lat": 34.2014305,
      "lon": -118.4834157,
      "tags": {
        "name": "ToysRus",
        "shop": "toys"
      }
    },
    {
      "type": "node",
      "id": 1924119014,
      "lat": 34.2570478,
      "lon": -118.5934693,
      "tags": {
        "addr:housenumber": "21112",
        "addr:postcode": "91311",
        "addr:street": "Devonshire Street",
        "name": "Cycle World Chatsworth",
        "shop": "bicycle"
      }
    },
    {
      "type": "node",
      "id": 1924395742,
      "lat": 34.2575856,
      "lon": -118.6058016,
      "tags": {
        "name": "7-11",
        "shop": "convenience"
      }
    },
    {
      "type": "node",
      "id": 1924395799,
      "lat": 34.2575546,
      "lon": -118.6041708,
      "tags": {
        "name": "Chatsworth Tire",
        "shop": "car_repair"
      }
    },
    {
      "type": "node",
      "id": 1932395515,
      "lat": 34.2361012,
      "lon": -118.5355174,
      "tags": {
        "name": "Ross",
        "shop": "clothes"
      }
    },
    {
      "type": "node",
      "id": 1932402430,
      "lat": 34.2351727,
      "lon": -118.5277448,
      "tags": {
        "name": "Boba Tea House",
        "shop": "supermarket"
      }
    },
    {
      "type": "node",
      "id": 1944734870,
      "lat": 34.2374353,
      "lon": -118.5280737,
      "tags": {
        "shop": "books"
      }
    },
    {
      "type": "node",
      "id": 1949785344,
      "lat": 34.0612088,
      "lon": -118.4470689,
      "tags": {
        "addr:housenumber": "1050",
        "addr:postcode": "90024",
        "addr:street": "Gayley Avenue",
        "name": "Whole Foods Market",
        "opening_hours": "Mo-Su 07:00-22:00",
        "shop": "supermarket"
      }
    },
    {
      "type": "node",
      "id": 1949811585,
      "lat": 34.0606152,
      "lon": -118.4451649,
      "tags": {
        "name": "Urban Outfitters",
        "shop": "clothes"
      }
    },
    {
      "type": "node",
      "id": 1956148188,
      "lat": 34.1019433,
      "lon": -118.2974054,
      "tags": {
        "name": "Ara's Pastry Shop",
        "shop": "confectionery"
      }
    },
    {
      "type": "node",
      "id": 1957080076,
      "lat": 34.2558876,
      "lon": -118.5371047,
      "tags": {
        "name": "Food Cort",
        "shop": "supermarket"
      }
    },
    {
      "type": "node",
      "id": 1957145036,
      "lat": 34.1016048,
      "lon": -118.3023839,
      "tags": {
        "addr:city": "Los Angeles",
        "addr:housenumber": "5150",
        "addr:postcode": "90027",
        "addr:street": "Hollywood Boulevard",
        "name": "Panos Pastry",
        "phone": "+1-323-661-0335",
        "shop": "confectionery",
        "website": "http://www.panospastry.com"
      }
    },
    {
      "type": "node",
      "id": 1957161062,
      "lat": 34.0914854,
      "lon": -118.2789911,
      "tags": {
        "name": "Spice Station",
        "shop": "yes"
      }
    },
    {
      "type": "node",
      "id": 1957163338,
      "lat": 34.0913927,
      "lon": -118.2795751,
      "tags": {
        "name": "Military Surplus",
        "shop": "yes"
      }
    },
    {
      "type": "node",
      "id": 1975817460,
      "lat": 34.102296,
      "lon": -118.3081363,
      "tags": {
        "name": "Ralph's",
        "shop": "supermarket"
      }
    },
    {
      "type": "node",
      "id": 1988740909,
      "lat": 34.2014802,
      "lon": -118.5271395,
      "tags": {
        "shop": "car_repair"
      }
    },
    {
      "type": "node",
      "id": 2005705573,
      "lat": 34.2349159,
      "lon": -118.5595233,
      "tags": {
        "name": "Northridge Toyota",
        "shop": "car"
      }
    },
    {
      "type": "node",
      "id": 2026766420,
      "lat": 34.0655794,
      "lon": -118.290934,
      "tags": {
        "addr:city": "Los Angeles",
        "addr:housenumber": "440",
        "addr:postcode": "90020",
        "addr:state": "CA",
        "addr:street": "South Vermont Avenue",
        "name": "Galleria Market - Galleria Vermont",
        "opening_hours": "Mo-Su: 07:00-24:00",
        "phone": "+1-213-427-6266",
        "shop": "supermarket"
      }
    },
    {
      "type": "node",
      "id": 2058508780,
      "lat": 34.0982371,
      "lon": -118.3160056,
      "tags": {
        "name": "Midas",
        "shop": "car_repair",
        "source": "survey"
      }
    },
    {
      "type": "node",
      "id": 2058536245,
      "lat": 34.0982351,
      "lon": -118.3202243,
      "tags": {
        "name": "liquor",
        "shop": "alcohol"
      }
    },
    {
      "type": "node",
      "id": 2058536341,
      "lat": 34.098224,
      "lon": -118.3200339,
      "tags": {
        "name": "hair",
        "shop": "hairdresser"
      }
    },
    {
      "type": "node",
      "id": 2086398930,
      "lat": 34.0441291,
      "lon": -118.2643512,
      "tags": {
        "addr:city": "Los Angeles",
        "addr:housename": "Barrys Ticket Service",
        "addr:housenumber": "1020",
        "addr:postcode": "90015",
        "addr:state": "CA",
        "addr:street": "S Figueroa Street",
        "name": "Barry’s Ticket Service",
        "opening_hours": "Mo-Su 08:00-21:00",
        "payment:amazonpay": "yes",
        "payment:cash": "yes",
        "payment:credit_cards": "yes",
        "payment:paypal": "yes",
        "phone": "+1-213-749-0057",
        "shop": "ticket",
        "website": "http://www.barrystickets.com"
      }
    },
    {
      "type": "node",
      "id": 2096809590,
      "lat": 34.0473884,
      "lon": -118.249404,
      "tags": {
        "name": "Buzz Wine Beer Shop",
        "shop": "alcohol",
        "wheelchair": "yes"
      }
    },
    {
      "type": "node",
      "id": 2096811182,
      "lat": 34.0477859,
      "lon": -118.2476609,
      "tags": {
        "addr:city": "Los Angeles",
        "addr:housenumber": "413",
        "addr:postcode": "90013",
        "addr:street": "S Main Street",
        "name": "Big Man Bakes",
        "opening_hours": "Mo-Th 08:00-22:00;Fr 08:00-24:00;Sa 10:00-24:00;Su off",
        "shop": "bakery",
        "wheelchair": "yes"
      }
    },
    {
      "type": "node",
      "id": 2163515963,
      "lat": 34.0633764,
      "lon": -118.2985419,
      "tags": {
        "name": "Zion Market",
        "shop": "supermarket"
      }
    },
    {
      "type": "node",
      "id": 2163540658,
      "lat": 34.0490066,
      "lon": -118.2502037,
      "tags": {
        "name": "DTLA Bikes",
        "shop": "bicycle",
        "website": "http://dtlabikes.com/"
      }
    },
    {
      "type": "node",
      "id": 2163540659,
      "lat": 34.0483953,
      "lon": -118.2507814,
      "tags": {
        "addr:city": "Los Angeles",
        "addr:housenumber": "449",
        "addr:postcode": "90013",
        "addr:state": "CA",
        "addr:street": "South Broadway",
        "name": "Fallas Paredes",
        "phone": "213-532-8901",
        "shop": "department_store",
        "website": "http://www.factory2-u.com"
      }
    },
    {
      "type": "node",
      "id": 2163540712,
      "lat": 34.0490404,
      "lon": -118.2512542,
      "tags": {
        "email": "info@silvercity.com",
        "fax": "213.489.7922",
        "name": "Silver City Jewelry",
        "opening_hours": "Mo-Fr 08:00 - 17:15",
        "phone": "213.689.1488",
        "shop": "jewelry",
        "website": "http://www.silvercity.com"
      }
    },
    {
      "type": "node",
      "id": 2163606596,
      "lat": 34.0470426,
      "lon": -118.2524103,
      "tags": {
        "email": "Allen@aajewelry.com",
        "name": "A&A Jewelry Supply",
        "opening_hours": "Mo-Fr 9:00-17:30; Sa 10:00-16:00",
        "phone": "1-800-433-5544",
        "shop": "jewelry",
        "website": "http://www.aajewelry.com"
      }
    },
    {
      "type": "node",
      "id": 2163606602,
      "lat": 34.0469244,
      "lon": -118.2520643,
      "tags": {
        "name": "Drs. Balfour & Shapiro",
        "phone": "213-627-5911",
        "shop": "optician",
        "website": "http://www.balfourshapiro.com/"
      }
    },
    {
      "type": "node",
      "id": 2163606603,
      "lat": 34.0469244,
      "lon": -118.2522555,
      "tags": {
        "addr:housenumber": "309",
        "addr:street": "6th Street",
        "name": "Gaby Jewelry Supplies",
        "opening_hours": "Mo-Sa 09:30-17:00",
        "phone": "+1 213-891-9004",
        "shop": "jewelry",
        "website": "http://www.facebook.com/pages/Gaby-Jewelry-Supplies/269963357874"
      }
    },
    {
      "type": "node",
      "id": 2163606608,
      "lat": 34.0471679,
      "lon": -118.2518988,
      "tags": {
        "name": "Hartfield's Jewelers",
        "shop": "jewelry",
        "website": "http://www.hartfield.bigcartel.com/"
      }
    },
    {
      "type": "node",
      "id": 2163606612,
      "lat": 34.0476677,
      "lon": -118.2514503,
      "tags": {
        "name": "Luxury Perfumes Wholesale",
        "shop": "beauty",
        "website": "www.luxuryperfumewholesale.com"
      }
    },
    {
      "type": "node",
      "id": 2163606663,
      "lat": 34.0475425,
      "lon": -118.2515913,
      "tags": {
        "name": "Shoe Hut",
        "phone": "(213) 688 - 8310",
        "shop": "shoes",
        "website": "http://www.shoehutusa.com/location_4.html"
      }
    },
    {
      "type": "node",
      "id": 2163661645,
      "lat": 34.0466547,
      "lon": -118.252324,
      "tags": {
        "name": "Broadway Gold Center",
        "shop": "jewelry",
        "website": "http://www.broadwaygold.com/"
      }
    },
    {
      "type": "node",
      "id": 2163661650,
      "lat": 34.0465859,
      "lon": -118.2523928,
      "tags": {
        "name": "L.A Noosha",
        "opening_hours": "Mo-Sa 09:00-18:00; Su 9:15-18:00",
        "phone": "+1 213-488-1225",
        "shop": "jewelry",
        "website": "http://www.facebook.com/pages/LA-Noosha/180739188631876"
      }
    },
    {
      "type": "node",
      "id": 2163769539,
      "lat": 34.0442976,
      "lon": -118.2545104,
      "tags": {
        "name": "Rainbow",
        "shop": "clothes",
        "website": "http://www.rainbowshops.com/"
      }
    },
    {
      "type": "node",
      "id": 2163993804,
      "lat": 34.0426493,
      "lon": -118.2554565,
      "tags": {
        "name": "Optometric Eye Institute",
        "opening_hours": "Mo-Fr 9:30-17:30; Sa 9:30-16:30",
        "phone": "213-627-9771",
        "shop": "optician",
        "website": "http://www.optometriceyeinstitute.net/"
      }
    },
    {
      "type": "node",
      "id": 2164095342,
      "lat": 34.0452538,
      "lon": -118.253023,
      "tags": {
        "name": "Ace Jewelry & Loan",
        "opening_hours": "Mo-Fr 9:00-17:30; Sa-Su 10:00-16:30",
        "phone": "(213) 622-3333",
        "shop": "jewelry",
        "website": "http://www.kingspawn.com"
      }
    },
    {
      "type": "node",
      "id": 2164095345,
      "lat": 34.0461026,
      "lon": -118.2521808,
      "tags": {
        "name": "Payless ShoeSource",
        "shop": "shoes",
        "website": "http://www.payless.com",
        "wheelchair": "yes"
      }
    },
    {
      "type": "node",
      "id": 2164203479,
      "lat": 34.0471647,
      "lon": -118.2512047,
      "tags": {
        "name": "Audio Video Plaza Inc",
        "shop": "electronics",
        "website": "http://profile.reliableplaces.com/CA/Los+Angeles/Electronic+Parts+Supplier/Audio+Video+Plaza+Inc",
        "wheelchair": "yes"
      }
    },
    {
      "type": "node",
      "id": 2164323121,
      "lat": 34.0512151,
      "lon": -118.2474791,
      "tags": {
        "email": "info@basicflowersla.com",
        "name": "basic flowers",
        "opening_hours": "Mo-Fr 8:00-18:00",
        "phone": "213 995-3333",
        "shop": "florist",
        "website": "http://basicflowersla.com/"
      }
    },
    {
      "type": "node",
      "id": 2164946736,
      "lat": 34.1013281,
      "lon": -118.3409761,
      "tags": {
        "name": "American Apparel",
        "shop": "clothes",
        "website": "www.americanapparel.net"
      }
    },
    {
      "type": "node",
      "id": 2164946751,
      "lat": 34.1013676,
      "lon": -118.3397378,
      "tags": {
        "name": "Disney's Soda Fountain and Studio Store",
        "shop": "gift",
        "website": "http://elcapitan.go.com/soda_fountain/main.html"
      }
    },
    {
      "type": "node",
      "id": 2164946756,
      "lat": 34.1013272,
      "lon": -118.3407626,
      "tags": {
        "addr:street": "Hollywood Boulevard",
        "name": "H&M Hollywood Blvd",
        "opening_hours": "Mo-Th 10:00-21:00;Fr-Sa 10:00-22:00;Sa 11:00-20:00",
        "phone": "+1 323-466-7633",
        "shop": "clothes",
        "website": "http://www.facebook.com/pages/HM-Hollywood-Blvd/146296318724997"
      }
    },
    {
      "type": "node",
      "id": 2164946871,
      "lat": 34.1013752,
      "lon": -118.3389393,
      "tags": {
        "name": "Souvenirs of Hollywood",
        "shop": "gift",
        "website": "http://hollywoodmegastore.com/"
      }
    },
    {
      "type": "node",
      "id": 2164946878,
      "lat": 34.1013535,
      "lon": -118.3403881,
      "tags": {
        "name": "ZARA",
        "phone": "+1 3234691002",
        "shop": "clothes",
        "website": "www.zara.com"
      }
    },
    {
      "type": "node",
      "id": 2165069058,
      "lat": 34.1013754,
      "lon": -118.3327884,
      "tags": {
        "email": "info@bseductive.com",
        "name": "Bizzy B",
        "opening_hours": "Mo-We 10:00-20:00; Th-Sa 10:00-20:00; Su 12:00-19:00",
        "phone": "+1 323-469-4309",
        "shop": "clothes",
        "website": "http://www.bseductive.com/"
      }
    },
    {
      "type": "node",
      "id": 2165069059,
      "lat": 34.1013696,
      "lon": -118.3331241,
      "tags": {
        "name": "Hollywood Book and Poster Company",
        "opening_hours": "Mo-Th 11:00-18:00; Fr-Sa 11:00-19:00; Su 12:00-17:00",
        "shop": "books",
        "website": "http://www.hollywoodbookandposter.com/"
      }
    },
    {
      "type": "node",
      "id": 2165069061,
      "lat": 34.1013579,
      "lon": -118.3333554,
      "tags": {
        "email": "cs@hollywoodtoysandcostumes.com",
        "name": "Hollywood Toys & Costumes",
        "phone": "1.866.232.1829",
        "shop": "clothes",
        "website": "http://www.hollywoodtoysandcostumes.com/"
      }
    },
    {
      "type": "node",
      "id": 2165069062,
      "lat": 34.1013414,
      "lon": -118.3340833,
      "tags": {
        "addr:housenumber": "6618",
        "addr:postcode": "90028",
        "addr:street": "Hollywood Boulevard",
        "designation": "Smoke Shop",
        "email": "info@smokewithmike.com",
        "name": "Mike's Smoke Shop & Vapor Bar",
        "opening_hours": "Su-Th 10:00-2:00;Fr-Sa 10:00-3:00",
        "phone": "323-461-8508",
        "shop": "gift",
        "website": "http://smokewithmike.com/"
      }
    },
    {
      "type": "node",
      "id": 2165117170,
      "lat": 34.1014183,
      "lon": -118.3312333,
      "tags": {
        "name": "Wilcox Tattoo",
        "shop": "tattoo",
        "website": "http://www.myspace.com/1004606424"
      }
    },
    {
      "type": "node",
      "id": 2165130967,
      "lat": 34.1014202,
      "lon": -118.330524,
      "tags": {
        "name": "Hollywood Suit Outlet",
        "phone": "800.784.8799",
        "shop": "clothes",
        "website": "http://www.hollywoodsuits.com/"
      }
    },
    {
      "type": "node",
      "id": 2165130972,
      "lat": 34.1014172,
      "lon": -118.3308621,
      "tags": {
        "erotic": "yes",
        "name": "Playmates of Hollywood",
        "note": "by PLAYBOY",
        "shop": "clothes",
        "website": "http://www.facebook.com/pages/Playmates-of-Hollywood/222239414458332?sk=info"
      }
    },
    {
      "type": "node",
      "id": 2165194441,
      "lat": 34.1009685,
      "lon": -118.3297222,
      "tags": {
        "name": "Panpipes Magickal Marketplace",
        "shop": "gift",
        "website": "http://www.panpipes.com"
      }
    },
    {
      "type": "node",
      "id": 2165269063,
      "lat": 34.1013529,
      "lon": -118.3293596,
      "tags": {
        "name": "World Book & News",
        "phone": "(323) 465-4352",
        "shop": "newspaper",
        "website": "http://worldnews.in-hollywood-ca.com/"
      }
    },
    {
      "type": "node",
      "id": 2165685696,
      "lat": 34.1014048,
      "lon": -118.3274311,
      "tags": {
        "email": "sales@iguanaclothing.com",
        "name": "Iguana Vintage Clothing",
        "opening_hours": "Mo-Sa 11:00-20:00; Su 10:00-18:00",
        "phone": "+1 323-462-1010",
        "shop": "clothes",
        "website": "http://www.iguanaclothing.com/"
      }
    },
    {
      "type": "node",
      "id": 2167567593,
      "lat": 33.7803597,
      "lon": -118.2602936,
      "tags": {
        "addr:housename": "Global Tires of California",
        "addr:housenumber": "233",
        "addr:postcode": "90744",
        "addr:street": "E Anaheim St",
        "name": "Global Tires of California",
        "shop": "car_repair",
        "website": "www.globaltiresofcal.com"
      }
    },
    {
      "type": "node",
      "id": 2178030689,
      "lat": 34.1033676,
      "lon": -118.2360136,
      "tags": {
        "name": "Super A",
        "shop": "supermarket"
      }
    },
    {
      "type": "node",
      "id": 2178031334,
      "lat": 34.1096481,
      "lon": -118.2430678,
      "tags": {
        "name": "Super King",
        "shop": "supermarket"
      }
    },
    {
      "type": "node",
      "id": 2272909079,
      "lat": 34.0920181,
      "lon": -118.3407752,
      "tags": {
        "addr:housenumber": "1135",
        "addr:postcode": "90038",
        "addr:street": "North Mansfield",
        "name": "yummy.com",
        "shop": "convenience",
        "website": "www.yummy.com"
      }
    },
    {
      "type": "node",
      "id": 2272911526,
      "lat": 34.0903077,
      "lon": -118.2769065,
      "tags": {
        "addr:housenumber": "3607",
        "addr:postcode": "90026",
        "addr:street": "Sunset Boulevard",
        "name": "yummy.com",
        "shop": "convenience",
        "website": "www.yummy.com"
      }
    },
    {
      "type": "node",
      "id": 2272915652,
      "lat": 33.9731821,
      "lon": -118.4223595,
      "tags": {
        "addr:housenumber": "6020",
        "addr:postcode": "90094",
        "addr:street": "Seabluff",
        "cuisine": "sandwich",
        "name": "yummy.com",
        "payment:cash": "yes",
        "payment:credit_cards": "yes",
        "payment:debit_cards": "yes",
        "payment:notes": "yes",
        "shop": "supermarket",
        "website": "www.yummy.com"
      }
    },
    {
      "type": "node",
      "id": 2273352385,
      "lat": 34.1643282,
      "lon": -118.3740182,
      "tags": {
        "internet_access": "terminal",
        "name": "Model Printing internet cafe",
        "payment:bitcoin": "yes",
        "service:print": "yes",
        "shop": "copyshop",
        "website": "http://www.modelprinting.com/"
      }
    },
    {
      "type": "node",
      "id": 2288623112,
      "lat": 34.2056715,
      "lon": -118.4166585,
      "tags": {
        "addr:housename": "13012 ",
        "addr:housenumber": "Suite 6",
        "addr:postcode": "91605",
        "addr:street": "Satcioy St ",
        "name": "P & A Beverages Inc",
        "shop": "alcohol",
        "website": "www.pnabev.com"
      }
    },
    {
      "type": "node",
      "id": 2294898546,
      "lat": 34.1095509,
      "lon": -118.2872795,
      "tags": {
        "name": "Leo Hair Studio",
        "shop": "hairdresser"
      }
    },
    {
      "type": "node",
      "id": 2294898547,
      "lat": 34.1090346,
      "lon": -118.2872808,
      "tags": {
        "name": "Fancy Nails",
        "shop": "beauty"
      }
    },
    {
      "type": "node",
      "id": 2294898549,
      "lat": 34.1089069,
      "lon": -118.2872848,
      "tags": {
        "addr:city": "Los Angeles",
        "addr:housenumber": "2042",
        "addr:postcode": "90027",
        "addr:street": "Hillhurst Avenue",
        "name": "Opyan's Hair",
        "shop": "hairdresser"
      }
    },
    {
      "type": "node",
      "id": 2294898552,
      "lat": 34.108214,
      "lon": -118.2872781,
      "tags": {
        "name": "Being in LA",
        "shop": "hairdresser"
      }
    },
    {
      "type": "node",
      "id": 2295428243,
      "lat": 34.1518742,
      "lon": -118.3619249,
      "tags": {
        "addr:housenumber": "10600",
        "addr:postcode": "91602",
        "addr:street": "Riverside Drive",
        "name": "Vendome Wine & Spirits",
        "shop": "alcohol",
        "website": "http://www.vendometolucalake.com/"
      }
    },
    {
      "type": "node",
      "id": 2310710043,
      "lat": 34.2454528,
      "lon": -118.2734547,
      "tags": {
        "addr:housenumber": "6511",
        "addr:postcode": "91042",
        "addr:street": "Foothill Boulevard",
        "name": "Pep Boys",
        "shop": "car_repair"
      }
    },
    {
      "type": "node",
      "id": 2318548747,
      "lat": 34.1429858,
      "lon": -118.3933469,
      "tags": {
        "addr:housename": "Trader Joe's",
        "addr:housenumber": "11976",
        "addr:postcode": "91604",
        "addr:street": "Ventura Boulevard",
        "name": "Trader Joe's",
        "shop": "supermarket",
        "source": "Survey",
        "website": "traderjoes.com"
      }
    },
    {
      "type": "node",
      "id": 2323432629,
      "lat": 34.0503752,
      "lon": -118.2422845,
      "tags": {
        "email": "los_angeles@kinokuniya.com",
        "name": "Kinokuniya",
        "shop": "books"
      }
    },
    {
      "type": "node",
      "id": 2323432632,
      "lat": 34.0476682,
      "lon": -118.2497228,
      "tags": {
        "name": "The Last Bookstore",
        "shop": "books",
        "website": "http://lastbookstorela.com/",
        "wheelchair": "limited"
      }
    },
    {
      "type": "node",
      "id": 2329493334,
      "lat": 34.0483124,
      "lon": -118.4910811,
      "tags": {
        "name": "Le Pain Quotidien",
        "shop": "bakery"
      }
    },
    {
      "type": "node",
      "id": 2347792688,
      "lat": 34.039667,
      "lon": -118.464646,
      "tags": {
        "shop": "greengrocer",
        "source": "Bing",
        "wheelchair": "yes"
      }
    },
    {
      "type": "node",
      "id": 2351788462,
      "lat": 34.0604938,
      "lon": -118.4457612,
      "tags": {
        "name": "Village Center Newsstand",
        "shop": "newsagent"
      }
    },
    {
      "type": "node",
      "id": 2359467069,
      "lat": 34.0607662,
      "lon": -118.4458569,
      "tags": {
        "name": "Verizon",
        "shop": "mobile_phone"
      }
    },
    {
      "type": "node",
      "id": 2363521783,
      "lat": 34.0607149,
      "lon": -118.4471192,
      "tags": {
        "addr:housenumber": "1071",
        "addr:postcode": "90024",
        "addr:street": "Gayley Avenue",
        "name": "Helen's Cycles",
        "opening_hours": "Mo-Fr 10:00-19:00; Sa 9:00-18:00; Su 11:00-17:00",
        "phone": "+1-310-208-8988",
        "shop": "bicycle",
        "website": "http://helenscycles.com/"
      }
    },
    {
      "type": "node",
      "id": 2363521785,
      "lat": 34.0606671,
      "lon": -118.4470929,
      "tags": {
        "addr:housenumber": "1073",
        "addr:postcode": "90024",
        "addr:street": "Gayley Avenue",
        "name": "London Cleaners",
        "shop": "dry_cleaning",
        "website": "http://www.londoncleanerslosangeles.com/"
      }
    },
    {
      "type": "node",
      "id": 2363521793,
      "lat": 34.0615188,
      "lon": -118.4481217,
      "tags": {
        "addr:housenumber": "1001",
        "addr:postcode": "90024",
        "addr:street": "Gayley Avenue",
        "name": "Westwood Copies",
        "shop": "copyshop"
      }
    },
    {
      "type": "node",
      "id": 2363521794,
      "lat": 34.0604296,
      "lon": -118.4468857,
      "tags": {
        "addr:housenumber": "1091",
        "addr:postcode": "90024",
        "addr:street": "Gayley Avenue",
        "name": "Westwood Flower Garden",
        "shop": "florist",
        "website": "http://www.westwoodflowergarden.com/"
      }
    },
    {
      "type": "node",
      "id": 2363521795,
      "lat": 34.0607599,
      "lon": -118.4471582,
      "tags": {
        "addr:housenumber": "1065",
        "addr:postcode": "90024",
        "addr:street": "Gayley Avenue",
        "name": "Westwood Sporting Goods",
        "shop": "sports"
      }
    },
    {
      "type": "node",
      "id": 2379629470,
      "lat": 34.0622372,
      "lon": -118.4451293,
      "tags": {
        "addr:housenumber": "1002",
        "addr:postcode": "90024",
        "addr:street": "Westwood Boulevard",
        "name": "AT&T",
        "shop": "mobile_phone"
      }
    },
    {
      "type": "node",
      "id": 2379629472,
      "lat": 34.0599881,
      "lon": -118.4446594,
      "tags": {
        "addr:housenumber": "1142",
        "addr:postcode": "90024",
        "addr:street": "Westwood Boulevard",
        "name": "T-Mobile",
        "shop": "mobile_phone"
      }
    },
    {
      "type": "node",
      "id": 2406441198,
      "lat": 34.0656453,
      "lon": -118.2383286,
      "tags": {
        "name": "West Plaza",
        "shop": "gift"
      }
    },
    {
      "type": "node",
      "id": 2410136084,
      "lat": 34.1679362,
      "lon": -118.3960242,
      "tags": {
        "addr:housenumber": "5338",
        "addr:postcode": "91607",
        "addr:street": "Laurel Canyon Boulevard",
        "designation": "Russian Deli",
        "name": "Dacha",
        "shop": "convenience"
      }
    },
    {
      "type": "node",
      "id": 2420397114,
      "lat": 34.2016654,
      "lon": -118.4755092,
      "tags": {
        "addr:postcode": "91406",
        "addr:street": "Sherman Way",
        "name": "Visuworx Communications LLC",
        "shop": "kiosk",
        "website": "www.visuworx.com"
      }
    },
    {
      "type": "node",
      "id": 2432921187,
      "lat": 34.1198066,
      "lon": -118.2013052,
      "tags": {
        "addr:city": "Los Angeles",
        "addr:housenumber": "5250",
        "addr:postcode": "90042",
        "addr:street": "York Boulevard",
        "name": "Super A Foods",
        "phone": "+1 323 551-6884",
        "shop": "supermarket",
        "website": "http://superafoods.com/"
      }
    },
    {
      "type": "node",
      "id": 2448971328,
      "lat": 34.2508649,
      "lon": -118.3882533,
      "tags": {
        "addr:city": "Sun Valley",
        "addr:housenumber": "9944",
        "addr:postcode": "91352",
        "addr:street": "Glenoaks Boulevard",
        "addr:streetnumber": "9944",
        "name": "Elite Auto Parts",
        "opening_hours": "Monday-Friday 8:00am-4:00pm, Saturday 8am-2pm, Sunday Closed",
        "phone": "818-767-0445",
        "shop": "car_parts",
        "source": "Richard Diament, Owner",
        "website": "http://www.eliteautopartsinc.com/"
      }
    },
    {
      "type": "node",
      "id": 2467158070,
      "lat": 34.0719744,
      "lon": -118.445928,
      "tags": {
        "email": "bikecenter@recreation.ucla.edu",
        "name": "UCLA Bike Shop",
        "phone": "+1-310-206-7219",
        "service:bicycle:diy": "yes",
        "service:bicycle:rental": "yes",
        "shop": "bicycle",
        "website": "http://www.recreation.ucla.edu/bikeshop"
      }
    },
    {
      "type": "node",
      "id": 2481698827,
      "lat": 34.105369,
      "lon": -118.3188971,
      "tags": {
        "camera_rentals": "BLACK MAGIC CINEMA CAMERA",
        "name": "Rudimental Rentals",
        "payment:bitcoin": "yes",
        "shop": "camera_rentals",
        "website": "http://www.therudimental.com/#!equipment/cmit"
      }
    },
    {
      "type": "node",
      "id": 2487341969,
      "lat": 34.105589,
      "lon": -118.3368736,
      "tags": {
        "addr:city": "Los Angeles",
        "addr:country": "US",
        "addr:housenumber": "1900",
        "addr:state": "CA",
        "addr:street": "Highland Avenue",
        "addr:suburb": "Hollywood",
        "name": "Whitley Market",
        "shop": "convenience"
      }
    },
    {
      "type": "node",
      "id": 2503450596,
      "lat": 34.1810284,
      "lon": -118.4656335,
      "tags": {
        "name": "Pepboys",
        "shop": "car_repair"
      }
    },
    {
      "type": "node",
      "id": 2503450605,
      "lat": 34.1833094,
      "lon": -118.466524,
      "tags": {
        "name": "CVS Pharmacy",
        "shop": "convenience"
      }
    },
    {
      "type": "node",
      "id": 2503460231,
      "lat": 34.182677,
      "lon": -118.4658399,
      "tags": {
        "name": "Cabinet Depot",
        "shop": "doityourself"
      }
    },
    {
      "type": "node",
      "id": 2503461006,
      "lat": 34.1810474,
      "lon": -118.4649718,
      "tags": {
        "name": "Staples",
        "shop": "books"
      }
    },
    {
      "type": "node",
      "id": 2503461218,
      "lat": 34.1810474,
      "lon": -118.4652688,
      "tags": {
        "name": "Dollar Tree",
        "shop": "supermarket"
      }
    },
    {
      "type": "node",
      "id": 2503461561,
      "lat": 34.1828233,
      "lon": -118.4658104,
      "tags": {
        "name": "Chef's Toys Foodservice Equipment",
        "shop": "doityourself"
      }
    },
    {
      "type": "node",
      "id": 2570208272,
      "lat": 34.0621831,
      "lon": -118.3509491,
      "tags": {
        "addr:city": "Los Angeles",
        "addr:postcode": "90036",
        "addr:street": "Wilshire Boulevard",
        "name": "Wynn Nail Spa",
        "payment:bitcoin": "yes",
        "phone": "+1 323 933 2271",
        "shop": "beauty",
        "source": "Wynn Nail Spa",
        "website": "http://www.wynnnailspa.com",
        "wheelchair": "yes"
      }
    },
    {
      "type": "node",
      "id": 2570230112,
      "lat": 34.0985042,
      "lon": -118.3268528,
      "tags": {
        "addr:city": "Los Angeles",
        "addr:housename": "Sunset & Vine",
        "addr:postcode": "90028",
        "addr:street": "Vine Street",
        "fixme": "check opening hours",
        "name": "Wynn Nail Spa",
        "opening_hours": "09:30-10:00",
        "payment:bitcoin": "yes",
        "phone": "1 323 871 8001",
        "shop": "beauty",
        "source": "Wynn Nail Spa",
        "website": "http://www.wynnnailspa.com",
        "wheelchair": "yes"
      }
    },
    {
      "type": "node",
      "id": 2577472823,
      "lat": 34.0364133,
      "lon": -118.4432389,
      "tags": {
        "addr:housename": "11400 W.Olympic Blvd. Suite 200 Los Angeles , CA 90064 USA",
        "name": "Namecheap - Web hosting",
        "payment:bitcoin": "yes",
        "shop": "computer",
        "website": "https://www.namecheap.com/"
      }
    },
    {
      "type": "node",
      "id": 2578244375,
      "lat": 34.0317653,
      "lon": -118.2908339,
      "tags": {
        "addr:city": "Los Angeles",
        "addr:housenumber": "2600 S",
        "addr:postcode": "90007",
        "addr:street": "Vermont Avenue",
        "name": "Ralphs",
        "opening_hours": "Mo-Su,PH 05:00-01:00",
        "shop": "supermarket"
      }
    },
    {
      "type": "node",
      "id": 2600858788,
      "lat": 34.1614772,
      "lon": -118.5128713,
      "tags": {
        "addr:city": "Encino",
        "addr:housenumber": "17401",
        "addr:postcode": "91316",
        "addr:street": "Ventura Boulevard",
        "animal_boarding": "dog",
        "name": "Petrock Hotel and Spa",
        "phone": "818.817.9451",
        "shop": "pet",
        "website": "www.petrockhotel.com"
      }
    },
    {
      "type": "node",
      "id": 2622742798,
      "lat": 33.9794001,
      "lon": -118.466594,
      "tags": {
        "addr:housenumber": "11",
        "addr:postcode": "90292",
        "addr:street": "Washington Boulevard",
        "name": "Nick's Liquor Store",
        "shop": "alcohol",
        "source": "survey"
      }
    },
    {
      "type": "node",
      "id": 2622748206,
      "lat": 33.9795469,
      "lon": -118.4663526,
      "tags": {
        "addr:housenumber": "21",
        "addr:postcode": "90292",
        "addr:street": "Washington Boulevard",
        "name": "Venice Bike & Skates",
        "opening_hours": "Mo-Fr 9:30-17:00;Sa-Su 8:30-17:30",
        "phone": "+1-310-301-4011",
        "shop": "bicycle",
        "website": "http://venicebikeandskates.com/"
      }
    },
    {
      "type": "node",
      "id": 2622750158,
      "lat": 33.9793044,
      "lon": -118.4660468,
      "tags": {
        "addr:housenumber": "22",
        "addr:postcode": "90292",
        "addr:street": "Washington Boulevard",
        "name": "Bay Market",
        "shop": "convenience"
      }
    },
    {
      "type": "node",
      "id": 2622864740,
      "lat": 33.9985922,
      "lon": -118.462568,
      "tags": {
        "addr:housenumber": "845",
        "addr:postcode": "90291",
        "addr:street": "Lincoln Boulevard",
        "name": "Allan's Aquarium & Pet Center",
        "shop": "pet",
        "type": "freshwater;saltwater;reptile;amphibian;bird;mammal;other",
        "website": "http://allansaquariumandpetcenter.com/"
      }
    },
    {
      "type": "node",
      "id": 2623019150,
      "lat": 34.1546969,
      "lon": -118.4702973,
      "tags": {
        "addr:city": "Sherman Oaks",
        "addr:housename": "Ste 11",
        "addr:housenumber": "15445",
        "addr:postcode": "91403",
        "addr:street": "Ventura Boulevard",
        "name": "EZ Market",
        "opening_hours": "10:00-23:00",
        "phone": "(818) 907-6237",
        "shop": "convenience"
      }
    },
    {
      "type": "node",
      "id": 2623061373,
      "lat": 34.0836782,
      "lon": -118.3487967,
      "tags": {
        "name": "Melrose Music",
        "shop": "music"
      }
    },
    {
      "type": "node",
      "id": 2623061374,
      "lat": 34.0833862,
      "lon": -118.3487997,
      "tags": {
        "name": "Floyds",
        "shop": "hairdresser"
      }
    },
    {
      "type": "node",
      "id": 2643391588,
      "lat": 34.0336786,
      "lon": -118.2808943,
      "tags": {
        "name": "Lee's Market",
        "shop": "convenience"
      }
    },
    {
      "type": "node",
      "id": 2652392633,
      "lat": 33.7909523,
      "lon": -118.2829248,
      "tags": {
        "name": "7-Eleven",
        "shop": "convenience",
        "wheelchair": "yes"
      }
    },
    {
      "type": "node",
      "id": 2652425748,
      "lat": 33.7903105,
      "lon": -118.2970871,
      "tags": {
        "addr:city": "Harbor City",
        "addr:housenumber": "1151",
        "addr:postcode": "90710",
        "addr:street": "West Pacific Coast Highway",
        "name": "Sunrise Caregivers Foundation",
        "opening_hours": "10:00-20:00",
        "phone": "+1 310 530 1628",
        "shop": "cannabis",
        "wheelchair": "yes"
      }
    },
    {
      "type": "node",
      "id": 2684713386,
      "lat": 33.8685713,
      "lon": -118.2864306,
      "tags": {
        "addr:housename": "Home Depot",
        "addr:housenumber": "740",
        "addr:postcode": "90248",
        "addr:street": "W. 182nd Street",
        "name": "Home Depot",
        "shop": "doityourself",
        "website": "homedepot.com"
      }
    },
    {
      "type": "node",
      "id": 2686117981,
      "lat": 34.0827363,
      "lon": -118.308697,
      "tags": {
        "motorcycle:rental": "yes",
        "name": "Racy Rentals",
        "shop": "motorcycle"
      }
    },
    {
      "type": "node",
      "id": 2687982826,
      "lat": 34.0212038,
      "lon": -118.3563143,
      "tags": {
        "name": "Rodeo Cleaners",
        "shop": "dry_cleaning"
      }
    },
    {
      "type": "node",
      "id": 2687982835,
      "lat": 33.9767857,
      "lon": -118.3762491,
      "tags": {
        "shop": "hairdresser"
      }
    },
    {
      "type": "node",
      "id": 2687983137,
      "lat": 33.9767076,
      "lon": -118.3766242,
      "tags": {
        "name": "7-Eleven",
        "shop": "convenience"
      }
    },
    {
      "type": "node",
      "id": 2687983138,
      "lat": 34.0218762,
      "lon": -118.3718604,
      "tags": {
        "name": "7-Eleven",
        "shop": "convenience"
      }
    },
    {
      "type": "node",
      "id": 2697735084,
      "lat": 34.054461,
      "lon": -118.3237385,
      "tags": {
        "name": "Food Mart",
        "opening_hours": "24/7",
        "shop": "convenience"
      }
    },
    {
      "type": "node",
      "id": 2697735085,
      "lat": 34.0694038,
      "lon": -118.3086508,
      "tags": {
        "name": "Food Mart",
        "shop": "convenience"
      }
    },
    {
      "type": "node",
      "id": 2697735086,
      "lat": 34.074174,
      "lon": -118.308883,
      "tags": {
        "name": "HK Market",
        "shop": "supermarket"
      }
    },
    {
      "type": "node",
      "id": 2697735210,
      "lat": 34.0731987,
      "lon": -118.3093472,
      "tags": {
        "shop": "furniture"
      }
    },
    {
      "type": "node",
      "id": 2697735238,
      "lat": 34.0824124,
      "lon": -118.309339,
      "tags": {
        "shop": "furniture"
      }
    },
    {
      "type": "node",
      "id": 2697735243,
      "lat": 34.0836727,
      "lon": -118.3093505,
      "tags": {
        "shop": "furniture"
      }
    },
    {
      "type": "node",
      "id": 2697735244,
      "lat": 34.0801347,
      "lon": -118.3095771,
      "tags": {
        "name": "7-Eleven",
        "shop": "convenience"
      }
    },
    {
      "type": "node",
      "id": 2699610757,
      "lat": 34.0496576,
      "lon": -118.4355583,
      "tags": {
        "name": "7-Eleven",
        "shop": "convenience"
      }
    },
    {
      "type": "node",
      "id": 2707561696,
      "lat": 33.9762724,
      "lon": -118.3829217,
      "tags": {
        "name": "Tesla",
        "shop": "car"
      }
    },
    {
      "type": "node",
      "id": 2707776870,
      "lat": 34.0371851,
      "lon": -118.3885257,
      "tags": {
        "shop": "alcohol"
      }
    },
    {
      "type": "node",
      "id": 2708868070,
      "lat": 34.0534484,
      "lon": -118.3758137,
      "tags": {
        "name": "David's Bridal",
        "shop": "clothes"
      }
    },
    {
      "type": "node",
      "id": 2708868077,
      "lat": 34.0529905,
      "lon": -118.3759518,
      "tags": {
        "name": "Frazee Paint",
        "shop": "paint"
      }
    },
    {
      "type": "node",
      "id": 2708868089,
      "lat": 34.0535345,
      "lon": -118.3759464,
      "tags": {
        "name": "T-Mobile",
        "shop": "mobile_phone"
      }
    },
    {
      "type": "node",
      "id": 2715023298,
      "lat": 33.9601208,
      "lon": -118.3967365,
      "tags": {
        "name": "Jiffy Lube",
        "shop": "car_repair"
      }
    },
    {
      "type": "node",
      "id": 2715023299,
      "lat": 34.0911711,
      "lon": -118.3270613,
      "tags": {
        "addr:housenumber": "6301",
        "addr:street": "Santa Monica Boulevard",
        "name": "Mobil Mart",
        "shop": "convenience"
      }
    },
    {
      "type": "node",
      "id": 2715023300,
      "lat": 34.0688114,
      "lon": -118.3100445,
      "tags": {
        "name": "Oro Liquor Market",
        "shop": "alcohol"
      }
    },
    {
      "type": "node",
      "id": 2715023301,
      "lat": 34.097857,
      "lon": -118.3537788,
      "tags": {
        "name": "Parisian Florist",
        "shop": "florist"
      }
    },
    {
      "type": "node",
      "id": 2715023302,
      "lat": 33.9563369,
      "lon": -118.3975811,
      "tags": {
        "name": "Ralphs",
        "shop": "supermarket"
      }
    },
    {
      "type": "node",
      "id": 2715023606,
      "lat": 34.0912813,
      "lon": -118.3271684,
      "tags": {
        "shop": "car_repair"
      }
    },
    {
      "type": "node",
      "id": 2715023611,
      "lat": 34.0978554,
      "lon": -118.3548763,
      "tags": {
        "shop": "alcohol"
      }
    },
    {
      "type": "node",
      "id": 2715023630,
      "lat": 34.0477036,
      "lon": -118.3440575,
      "tags": {
        "name": "7-Eleven",
        "shop": "convenience"
      }
    },
    {
      "type": "node",
      "id": 2715023631,
      "lat": 34.0977551,
      "lon": -118.3553452,
      "tags": {
        "name": "7-Eleven",
        "shop": "convenience"
      }
    },
    {
      "type": "node",
      "id": 2778914748,
      "lat": 34.0906457,
      "lon": -118.2913562,
      "tags": {
        "amenity": "fuel",
        "brand": "Arco",
        "shop": "yes"
      }
    },
    {
      "type": "node",
      "id": 2807870391,
      "lat": 34.2014648,
      "lon": -118.562636,
      "tags": {
        "addr:city": "winnetka",
        "addr:housenumber": "19701",
        "addr:postcode": "91306",
        "addr:street": "Sherman Way",
        "name": "LA Cars Repo",
        "payment:bitcoin": "yes",
        "payment:litecoin": "yes",
        "phone": "818-998-9977",
        "second_hand": "only",
        "shop": "car",
        "website": "http://www.lacarsrepo.com"
      }
    },
    {
      "type": "node",
      "id": 2857397990,
      "lat": 34.0048333,
      "lon": -118.3312809,
      "tags": {
        "addr:city": "Los Angeles",
        "addr:housenumber": "4336",
        "addr:postcode": "90008",
        "addr:street": "Degnan Boulevard",
        "shop": "vacant"
      }
    },
    {
      "type": "node",
      "id": 2857399352,
      "lat": 34.0047957,
      "lon": -118.33128,
      "tags": {
        "addr:city": "Los Angeles",
        "addr:housenumber": "4338",
        "addr:postcode": "90008",
        "addr:street": "Degnan Boulevard",
        "shop": "vacant"
      }
    },
    {
      "type": "node",
      "id": 2890896715,
      "lat": 34.0950162,
      "lon": -118.1591609,
      "tags": {
        "addr:city": "Los Angeles",
        "addr:street": "Huntington Drive",
        "name": "RYAN'S AUTO REPAIR",
        "shop": "car_repair"
      }
    },
    {
      "type": "node",
      "id": 2892741010,
      "lat": 34.0008153,
      "lon": -118.469384,
      "tags": {
        "addr:city": "Venice CA",
        "addr:country": "US",
        "addr:housenumber": "241",
        "addr:postcode": "90291",
        "addr:street": "Lincoln Boulevard",
        "name": "Wash Coin Laundry",
        "phone": "(888) 391-9394",
        "shop": "laundry"
      }
    },
    {
      "type": "node",
      "id": 2892741011,
      "lat": 34.0012423,
      "lon": -118.4697382,
      "tags": {
        "addr:city": "Venice",
        "addr:housenumber": "225",
        "addr:postcode": "90291",
        "addr:state": "CA",
        "addr:street": "Lincoln Boulevard",
        "name": "Whole Foods Market",
        "opening_hours": "Mo-Su 06:30-22:00",
        "phone": "+1 310 566 9480",
        "shop": "supermarket",
        "website": "http://www.wholefoodsmarket.com/",
        "wheelchair": "yes"
      }
    },
    {
      "type": "node",
      "id": 2894755446,
      "lat": 34.0704129,
      "lon": -118.3593995,
      "tags": {
        "name": "Kmart",
        "shop": "department_store"
      }
    },
    {
      "type": "node",
      "id": 2930475057,
      "lat": 34.150213,
      "lon": -118.3797669,
      "tags": {
        "name": "Valley Stores",
        "shop": "convenience"
      }
    },
    {
      "type": "node",
      "id": 2948592268,
      "lat": 34.0901193,
      "lon": -118.2121612,
      "tags": {
        "addr:city": "Los Angeles",
        "addr:housenumber": "3706",
        "addr:postcode": "90065",
        "addr:street": "Figueroa Street",
        "name": "Bike Oven",
        "opening_hours": "Mo-Tu 19:00-22:00;We off;Th 19:00-22:00;Fr-Su 13:00-16:00",
        "phone": "+1 323 223 8020",
        "service:bicycle:diy": "yes",
        "service:bicycle:retail": "no",
        "shop": "bicycle",
        "website": "http://bikeoven.com/"
      }
    },
    {
      "type": "node",
      "id": 2956626162,
      "lat": 34.0339943,
      "lon": -118.2648737,
      "tags": {
        "addr:city": "Los Angeles",
        "addr:housenumber": "1626",
        "addr:postcode": "90015",
        "addr:street": "South Hill Street",
        "email": "Info@JustRideLA.com",
        "name": "Just Ride LA",
        "opening_hours": "Mo-Sa 10:00-19:00;Su 11:00-18:00",
        "phone": "+1 213 745 6783",
        "shop": "bicycle",
        "website": "http://justridela.com/"
      }
    },
    {
      "type": "node",
      "id": 2956714425,
      "lat": 34.055066,
      "lon": -118.3880556,
      "tags": {
        "addr:city": "Los Angeles",
        "addr:housenumber": "9006",
        "addr:postcode": "90035",
        "addr:street": "Pico Boulevard",
        "name": "Bikecology",
        "opening_hours": "Mo-Fr 10:00-19:00;Sa 9:00-17:30;Su 10:00-17:00",
        "phone": "+1 310 278 0915",
        "shop": "bicycle",
        "website": "http://www.bikecologyla.com/"
      }
    },
    {
      "type": "node",
      "id": 2970140076,
      "lat": 34.1030779,
      "lon": -118.2919351,
      "tags": {
        "name": "Hollymont Cleaners",
        "shop": "dry_cleaning"
      }
    },
    {
      "type": "node",
      "id": 2970140082,
      "lat": 34.1032945,
      "lon": -118.2916347,
      "tags": {
        "addr:city": "Los Angeles",
        "addr:housenumber": "1770",
        "addr:postcode": "90027",
        "addr:street": "North Vermont Avenue",
        "name": "Y-Que",
        "phone": "(323) 664-0021",
        "shop": "gift"
      }
    },
    {
      "type": "node",
      "id": 2970140083,
      "lat": 34.1025738,
      "lon": -118.291628,
      "tags": {
        "name": "Co-op 28",
        "shop": "gift"
      }
    },
    {
      "type": "node",
      "id": 2970140085,
      "lat": 34.1024094,
      "lon": -118.2916333,
      "tags": {
        "addr:city": "Los Angeles",
        "addr:housenumber": "1724",
        "addr:postcode": "90027",
        "addr:street": "North Vermont Avenue",
        "name": "Heretic",
        "shop": "gift"
      }
    },
    {
      "type": "node",
      "id": 2970144349,
      "lat": 34.101029,
      "lon": -118.2911787,
      "tags": {
        "addr:city": "Los Angeles",
        "addr:postcode": "90027",
        "addr:street": "Hollywood Boulevard",
        "name": "Blue Rooster",
        "shop": "art"
      }
    },
    {
      "type": "node",
      "id": 2970164893,
      "lat": 34.0985406,
      "lon": -118.3029906,
      "tags": {
        "name": "Sahag's Basturma",
        "shop": "deli"
      }
    },
    {
      "type": "node",
      "id": 2970164894,
      "lat": 34.0974634,
      "lon": -118.3039857,
      "tags": {
        "name": "Druzhba Meat Market",
        "shop": "butcher"
      }
    },
    {
      "type": "node",
      "id": 2970164895,
      "lat": 34.0974612,
      "lon": -118.3041627,
      "tags": {
        "name": "Mush Bakery",
        "shop": "bakery"
      }
    },
    {
      "type": "node",
      "id": 2998750056,
      "lat": 34.1019122,
      "lon": -118.2990149,
      "tags": {
        "addr:city": "Los Angeles",
        "addr:housenumber": "5019",
        "addr:postcode": "90027",
        "addr:street": "Hollywood Boulevard",
        "name": "Papillon International Bakery & Ponchikanoc",
        "phone": "(323) 953-1100",
        "shop": "bakery",
        "website": "http://www.papilloninternationalbakery.com"
      }
    },
    {
      "type": "node",
      "id": 3000222280,
      "lat": 34.1008922,
      "lon": -118.2909982,
      "tags": {
        "name": "American Apparel",
        "shop": "clothes"
      }
    },
    {
      "type": "node",
      "id": 3013308272,
      "lat": 34.0980417,
      "lon": -118.2863792,
      "tags": {
        "name": "Rudy's Barbershop",
        "shop": "hairdresser"
      }
    },
    {
      "type": "node",
      "id": 3013342472,
      "lat": 34.1047816,
      "lon": -118.2877795,
      "tags": {
        "name": "Celebrity Cleaners",
        "shop": "dry_cleaning"
      }
    },
    {
      "type": "node",
      "id": 3019430693,
      "lat": 34.1365529,
      "lon": -118.3511675,
      "tags": {
        "name": "Stop & Play",
        "shop": "gift"
      }
    },
    {
      "type": "node",
      "id": 3019430988,
      "lat": 34.1362602,
      "lon": -118.3517601,
      "tags": {
        "name": "Lids",
        "shop": "clothes"
      }
    },
    {
      "type": "node",
      "id": 3019430989,
      "lat": 34.1361946,
      "lon": -118.3521009,
      "tags": {
        "name": "Sports Avenue",
        "shop": "sports"
      }
    },
    {
      "type": "node",
      "id": 3019430990,
      "lat": 34.1361748,
      "lon": -118.352287,
      "tags": {
        "name": "Skechers",
        "shop": "shoes"
      }
    },
    {
      "type": "node",
      "id": 3019431007,
      "lat": 34.1365484,
      "lon": -118.353197,
      "tags": {
        "name": "IT'SUGAR",
        "shop": "confectionery"
      }
    },
    {
      "type": "node",
      "id": 3019431008,
      "lat": 34.1365438,
      "lon": -118.353431,
      "tags": {
        "name": "Abercrombie & Fitch",
        "shop": "clothes"
      }
    },
    {
      "type": "node",
      "id": 3019431042,
      "lat": 34.1360757,
      "lon": -118.3541237,
      "tags": {
        "name": "Sparky's",
        "shop": "gift"
      }
    },
    {
      "type": "node",
      "id": 3020557696,
      "lat": 34.1360996,
      "lon": -118.3543644,
      "tags": {
        "ele": "1",
        "name": "Sephora",
        "operator": "Sephora",
        "shop": "cosmetics"
      }
    },
    {
      "type": "node",
      "id": 3020557698,
      "lat": 34.1361233,
      "lon": -118.354811,
      "tags": {
        "name": "Dodgers Clubhouse Store",
        "shop": "gift"
      }
    },
    {
      "type": "node",
      "id": 3020558735,
      "lat": 34.1363508,
      "lon": -118.3540874,
      "tags": {
        "name": "Magnet Max",
        "shop": "gift"
      }
    },
    {
      "type": "node",
      "id": 3020558736,
      "lat": 34.1364131,
      "lon": -118.3543584,
      "tags": {
        "name": "GUESS",
        "shop": "clothes"
      }
    },
    {
      "type": "node",
      "id": 3020558738,
      "lat": 34.1364532,
      "lon": -118.354536,
      "tags": {
        "name": "Hot Topic",
        "shop": "clothes"
      }
    },
    {
      "type": "node",
      "id": 3020558741,
      "lat": 34.1364829,
      "lon": -118.3548087,
      "tags": {
        "name": "SCENE",
        "shop": "clothes"
      }
    },
    {
      "type": "node",
      "id": 3020558760,
      "lat": 34.1363107,
      "lon": -118.3554278,
      "tags": {
        "name": "Billabong",
        "shop": "clothes"
      }
    },
    {
      "type": "node",
      "id": 3020558761,
      "lat": 34.1362186,
      "lon": -118.3552878,
      "tags": {
        "name": "Fossil",
        "shop": "clothes"
      }
    },
    {
      "type": "node",
      "id": 3042690617,
      "lat": 34.1018933,
      "lon": -118.3027209,
      "tags": {
        "addr:city": "Los Angeles",
        "addr:housenumber": "5161",
        "addr:postcode": "90027",
        "addr:street": "Hollywood Boulevard",
        "name": "Hollywood Pets",
        "phone": "(323) 660-7387",
        "shop": "pet"
      }
    },
    {
      "type": "node",
      "id": 3042690618,
      "lat": 34.1019753,
      "lon": -118.3026082,
      "tags": {
        "addr:city": "Los Angeles",
        "addr:housenumber": "5155",
        "addr:postcode": "90027",
        "addr:street": "Hollywood Boulevard",
        "name": "Phukaw",
        "phone": "(323) 522-3925",
        "shop": "clothes",
        "website": "http://www.phukaw.net"
      }
    },
    {
      "type": "node",
      "id": 3049853955,
      "lat": 34.1717597,
      "lon": -118.5174085,
      "tags": {
        "name": "Trader Joe's",
        "shop": "supermarket"
      }
    },
    {
      "type": "node",
      "id": 3059590325,
      "lat": 34.0959507,
      "lon": -118.2839343,
      "tags": {
        "name": "Spruce Flowers",
        "phone": "323-660-9300",
        "shop": "florist",
        "website": "www.sprucela.com"
      }
    },